{
"type": "FeatureCollection",
"features": [
{ "type": "Feature", "properties": { "index": "0", "lat": 46.278167, "lon": 5.669, "nom_usuel": "ARBENT", "num_poste": "01014002", "commune": "ARBENT", "ficheClimComplete": 0, "ficheClimReduite": 1, "alti": 534, "url_metadata": "https://donneespubliques.meteofrance.fr/metadonnees_publiques/fiches/fiche_01014002.pdf" }, "geometry": { "type": "Point", "coordinates": [ 5.669, 46.278167 ] } },
{ "type": "Feature", "properties": { "index": "1", "lat": 45.833, "lon": 5.106667, "nom_usuel": "BALAN_AERO", "num_poste": "01027003", "commune": "BALAN", "ficheClimComplete": 0, "ficheClimReduite": 0, "alti": 196, "url_metadata": "https://donneespubliques.meteofrance.fr/metadonnees_publiques/fiches/fiche_01027003.pdf" }, "geometry": { "type": "Point", "coordinates": [ 5.106667, 45.833 ] } },
{ "type": "Feature", "properties": { "index": "2", "lat": 46.122, "lon": 4.9045, "nom_usuel": "BANEINS", "num_poste": "01028001", "commune": "BANEINS", "ficheClimComplete": 0, "ficheClimReduite": 1, "alti": 243, "url_metadata": "https://donneespubliques.meteofrance.fr/metadonnees_publiques/fiches/fiche_01028001.pdf" }, "geometry": { "type": "Point", "coordinates": [ 4.9045, 46.122 ] } },
{ "type": "Feature", "properties": { "index": "3", "lat": 46.0865, "lon": 5.814167, "nom_usuel": "BELLEGARDE", "num_poste": "01033002", "commune": "VALSERHONE", "ficheClimComplete": 1, "ficheClimReduite": 1, "alti": 350, "url_metadata": "https://donneespubliques.meteofrance.fr/metadonnees_publiques/fiches/fiche_01033002.pdf" }, "geometry": { "type": "Point", "coordinates": [ 5.814167, 46.0865 ] } },
{ "type": "Feature", "properties": { "index": "4", "lat": 45.769333, "lon": 5.688, "nom_usuel": "BELLEY", "num_poste": "01034004", "commune": "BELLEY", "ficheClimComplete": 0, "ficheClimReduite": 1, "alti": 330, "url_metadata": "https://donneespubliques.meteofrance.fr/metadonnees_publiques/fiches/fiche_01034004.pdf" }, "geometry": { "type": "Point", "coordinates": [ 5.688, 45.769333 ] } },
{ "type": "Feature", "properties": { "index": "5", "lat": 45.862333, "lon": 5.484167, "nom_usuel": "BENONCES", "num_poste": "01037001", "commune": "BENONCES", "ficheClimComplete": 0, "ficheClimReduite": 1, "alti": 944, "url_metadata": "https://donneespubliques.meteofrance.fr/metadonnees_publiques/fiches/fiche_01037001.pdf" }, "geometry": { "type": "Point", "coordinates": [ 5.484167, 45.862333 ] } },
{ "type": "Feature", "properties": { "index": "6", "lat": 45.777167, "lon": 5.487167, "nom_usuel": "VERIZIEU", "num_poste": "01064001", "commune": "BRIORD", "ficheClimComplete": 0, "ficheClimReduite": 0, "alti": 281, "url_metadata": "https://donneespubliques.meteofrance.fr/metadonnees_publiques/fiches/fiche_01064001.pdf" }, "geometry": { "type": "Point", "coordinates": [ 5.487167, 45.777167 ] } },
{ "type": "Feature", "properties": { "index": "7", "lat": 46.310333, "lon": 6.080333, "nom_usuel": "CESSY", "num_poste": "01071001", "commune": "CESSY", "ficheClimComplete": 0, "ficheClimReduite": 1, "alti": 507, "url_metadata": "https://donneespubliques.meteofrance.fr/metadonnees_publiques/fiches/fiche_01071001.pdf" }, "geometry": { "type": "Point", "coordinates": [ 6.080333, 46.310333 ] } },
{ "type": "Feature", "properties": { "index": "8", "lat": 46.204333, "lon": 5.287667, "nom_usuel": "CEYZERIAT_SAPC", "num_poste": "01072001", "commune": "JASSERON", "ficheClimComplete": 0, "ficheClimReduite": 1, "alti": 260, "url_metadata": "https://donneespubliques.meteofrance.fr/metadonnees_publiques/fiches/fiche_01072001.pdf" }, "geometry": { "type": "Point", "coordinates": [ 5.287667, 46.204333 ] } },
{ "type": "Feature", "properties": { "index": "9", "lat": 45.9765, "lon": 5.329333, "nom_usuel": "AMBERIEU", "num_poste": "01089001", "commune": "CHATEAU-GAILLARD", "ficheClimComplete": 0, "ficheClimReduite": 1, "alti": 250, "url_metadata": "https://donneespubliques.meteofrance.fr/metadonnees_publiques/fiches/fiche_01089001.pdf" }, "geometry": { "type": "Point", "coordinates": [ 5.329333, 45.9765 ] } },
{ "type": "Feature", "properties": { "index": "10", "lat": 46.3415, "lon": 6.139667, "nom_usuel": "DIVONNE ZA", "num_poste": "01143002", "commune": "DIVONNE-LES-BAINS", "ficheClimComplete": 0, "ficheClimReduite": 1, "alti": 467, "url_metadata": "https://donneespubliques.meteofrance.fr/metadonnees_publiques/fiches/fiche_01143002.pdf" }, "geometry": { "type": "Point", "coordinates": [ 6.139667, 46.3415 ] } },
{ "type": "Feature", "properties": { "index": "11", "lat": 46.23, "lon": 5.7725, "nom_usuel": "GIRON", "num_poste": "01174001", "commune": "GIRON", "ficheClimComplete": 0, "ficheClimReduite": 1, "alti": 1015, "url_metadata": "https://donneespubliques.meteofrance.fr/metadonnees_publiques/fiches/fiche_01174001.pdf" }, "geometry": { "type": "Point", "coordinates": [ 5.7725, 46.23 ] } },
{ "type": "Feature", "properties": { "index": "12", "lat": 46.09, "lon": 5.482, "nom_usuel": "LA BALME SUR CERDON_SAPC", "num_poste": "01200002", "commune": "LABALME", "ficheClimComplete": 0, "ficheClimReduite": 0, "alti": 596, "url_metadata": "https://donneespubliques.meteofrance.fr/metadonnees_publiques/fiches/fiche_01200002.pdf" }, "geometry": { "type": "Point", "coordinates": [ 5.482, 46.09 ] } },
{ "type": "Feature", "properties": { "index": "13", "lat": 46.0385, "lon": 5.044333, "nom_usuel": "MARLIEUX", "num_poste": "01235001", "commune": "MARLIEUX", "ficheClimComplete": 0, "ficheClimReduite": 1, "alti": 280, "url_metadata": "https://donneespubliques.meteofrance.fr/metadonnees_publiques/fiches/fiche_01235001.pdf" }, "geometry": { "type": "Point", "coordinates": [ 5.044333, 46.0385 ] } },
{ "type": "Feature", "properties": { "index": "14", "lat": 46.378833, "lon": 6.019333, "nom_usuel": "MIJOUX", "num_poste": "01247003", "commune": "MIJOUX", "ficheClimComplete": 0, "ficheClimReduite": 0, "alti": 1002, "url_metadata": "https://donneespubliques.meteofrance.fr/metadonnees_publiques/fiches/fiche_01247003.pdf" }, "geometry": { "type": "Point", "coordinates": [ 6.019333, 46.378833 ] } },
{ "type": "Feature", "properties": { "index": "15", "lat": 45.794333, "lon": 5.469333, "nom_usuel": "MONTAGNIEU", "num_poste": "01255002", "commune": "MONTAGNIEU", "ficheClimComplete": 0, "ficheClimReduite": 1, "alti": 336, "url_metadata": "https://donneespubliques.meteofrance.fr/metadonnees_publiques/fiches/fiche_01255002.pdf" }, "geometry": { "type": "Point", "coordinates": [ 5.469333, 45.794333 ] } },
{ "type": "Feature", "properties": { "index": "16", "lat": 46.148167, "lon": 5.607333, "nom_usuel": "NANTUA", "num_poste": "01269001", "commune": "NANTUA", "ficheClimComplete": 0, "ficheClimReduite": 0, "alti": 483, "url_metadata": "https://donneespubliques.meteofrance.fr/metadonnees_publiques/fiches/fiche_01269001.pdf" }, "geometry": { "type": "Point", "coordinates": [ 5.607333, 46.148167 ] } },
{ "type": "Feature", "properties": { "index": "17", "lat": 46.403167, "lon": 5.109833, "nom_usuel": "SAINT JULIEN SUR REYSSOUZE", "num_poste": "01367002", "commune": "SAINT-JULIEN-SUR-REYSSOUZE", "ficheClimComplete": 0, "ficheClimReduite": 0, "alti": 189, "url_metadata": "https://donneespubliques.meteofrance.fr/metadonnees_publiques/fiches/fiche_01367002.pdf" }, "geometry": { "type": "Point", "coordinates": [ 5.109833, 46.403167 ] } },
{ "type": "Feature", "properties": { "index": "18", "lat": 45.931667, "lon": 5.426667, "nom_usuel": "SAINT RAMBERT EN BUGEY", "num_poste": "01384001", "commune": "SAINT-RAMBERT-EN-BUGEY", "ficheClimComplete": 0, "ficheClimReduite": 1, "alti": 285, "url_metadata": "https://donneespubliques.meteofrance.fr/metadonnees_publiques/fiches/fiche_01384001.pdf" }, "geometry": { "type": "Point", "coordinates": [ 5.426667, 45.931667 ] } },
{ "type": "Feature", "properties": { "index": "19", "lat": 45.950333, "lon": 5.461, "nom_usuel": "ST RAMBERT CG01", "num_poste": "01384003", "commune": "SAINT-RAMBERT-EN-BUGEY", "ficheClimComplete": 0, "ficheClimReduite": 0, "alti": 296, "url_metadata": "https://donneespubliques.meteofrance.fr/metadonnees_publiques/fiches/fiche_01384003.pdf" }, "geometry": { "type": "Point", "coordinates": [ 5.461, 45.950333 ] } },
{ "type": "Feature", "properties": { "index": "20", "lat": 45.916167, "lon": 5.624667, "nom_usuel": "SUTRIEU", "num_poste": "01414001", "commune": "VALROMEY-SUR-SERAN", "ficheClimComplete": 0, "ficheClimReduite": 1, "alti": 878, "url_metadata": "https://donneespubliques.meteofrance.fr/metadonnees_publiques/fiches/fiche_01414001.pdf" }, "geometry": { "type": "Point", "coordinates": [ 5.624667, 45.916167 ] } },
{ "type": "Feature", "properties": { "index": "21", "lat": 46.088833, "lon": 5.540833, "nom_usuel": "VIEU", "num_poste": "01441001", "commune": "VIEU-D'IZENAVE", "ficheClimComplete": 0, "ficheClimReduite": 1, "alti": 615, "url_metadata": "https://donneespubliques.meteofrance.fr/metadonnees_publiques/fiches/fiche_01441001.pdf" }, "geometry": { "type": "Point", "coordinates": [ 5.540833, 46.088833 ] } },
{ "type": "Feature", "properties": { "index": "22", "lat": 49.595667, "lon": 3.610333, "nom_usuel": "AULNOIS-SS-LAON", "num_poste": "02037002", "commune": "LAON", "ficheClimComplete": 0, "ficheClimReduite": 1, "alti": 78, "url_metadata": "https://donneespubliques.meteofrance.fr/metadonnees_publiques/fiches/fiche_02037002.pdf" }, "geometry": { "type": "Point", "coordinates": [ 3.610333, 49.595667 ] } },
{ "type": "Feature", "properties": { "index": "23", "lat": 49.390333, "lon": 3.732667, "nom_usuel": "BEAURIEUX", "num_poste": "02058001", "commune": "BEAURIEUX", "ficheClimComplete": 0, "ficheClimReduite": 0, "alti": 56, "url_metadata": "https://donneespubliques.meteofrance.fr/metadonnees_publiques/fiches/fiche_02058001.pdf" }, "geometry": { "type": "Point", "coordinates": [ 3.732667, 49.390333 ] } },
{ "type": "Feature", "properties": { "index": "24", "lat": 49.322167, "lon": 3.301667, "nom_usuel": "BERZY-LE-SEC", "num_poste": "02077001", "commune": "BERZY-LE-SEC", "ficheClimComplete": 0, "ficheClimReduite": 0, "alti": 146, "url_metadata": "https://donneespubliques.meteofrance.fr/metadonnees_publiques/fiches/fiche_02077001.pdf" }, "geometry": { "type": "Point", "coordinates": [ 3.301667, 49.322167 ] } },
{ "type": "Feature", "properties": { "index": "25", "lat": 49.009667, "lon": 3.462667, "nom_usuel": "BLESMES", "num_poste": "02094001", "commune": "BLESMES", "ficheClimComplete": 0, "ficheClimReduite": 1, "alti": 222, "url_metadata": "https://donneespubliques.meteofrance.fr/metadonnees_publiques/fiches/fiche_02094001.pdf" }, "geometry": { "type": "Point", "coordinates": [ 3.462667, 49.009667 ] } },
{ "type": "Feature", "properties": { "index": "26", "lat": 49.351333, "lon": 3.527, "nom_usuel": "BRAINE", "num_poste": "02110002", "commune": "BRAINE", "ficheClimComplete": 0, "ficheClimReduite": 1, "alti": 61, "url_metadata": "https://donneespubliques.meteofrance.fr/metadonnees_publiques/fiches/fiche_02110002.pdf" }, "geometry": { "type": "Point", "coordinates": [ 3.527, 49.351333 ] } },
{ "type": "Feature", "properties": { "index": "27", "lat": 49.633833, "lon": 3.197833, "nom_usuel": "CHAUNY", "num_poste": "02173002", "commune": "CHAUNY", "ficheClimComplete": 0, "ficheClimReduite": 1, "alti": 83, "url_metadata": "https://donneespubliques.meteofrance.fr/metadonnees_publiques/fiches/fiche_02173002.pdf" }, "geometry": { "type": "Point", "coordinates": [ 3.197833, 49.633833 ] } },
{ "type": "Feature", "properties": { "index": "28", "lat": 49.818333, "lon": 3.206, "nom_usuel": "ST QUENTIN", "num_poste": "02320001", "commune": "FONTAINE-LES-CLERCS", "ficheClimComplete": 1, "ficheClimReduite": 1, "alti": 98, "url_metadata": "https://donneespubliques.meteofrance.fr/metadonnees_publiques/fiches/fiche_02320001.pdf" }, "geometry": { "type": "Point", "coordinates": [ 3.206, 49.818333 ] } },
{ "type": "Feature", "properties": { "index": "29", "lat": 49.837333, "lon": 3.877833, "nom_usuel": "FONTAINE-LES-VV", "num_poste": "02321002", "commune": "FONTAINE-LES-VERVINS", "ficheClimComplete": 0, "ficheClimReduite": 1, "alti": 186, "url_metadata": "https://donneespubliques.meteofrance.fr/metadonnees_publiques/fiches/fiche_02321002.pdf" }, "geometry": { "type": "Point", "coordinates": [ 3.877833, 49.837333 ] } },
{ "type": "Feature", "properties": { "index": "30", "lat": 49.599833, "lon": 3.781, "nom_usuel": "GIZY", "num_poste": "02346001", "commune": "GIZY", "ficheClimComplete": 0, "ficheClimReduite": 1, "alti": 75, "url_metadata": "https://donneespubliques.meteofrance.fr/metadonnees_publiques/fiches/fiche_02346001.pdf" }, "geometry": { "type": "Point", "coordinates": [ 3.781, 49.599833 ] } },
{ "type": "Feature", "properties": { "index": "31", "lat": 49.922, "lon": 4.077167, "nom_usuel": "HIRSON", "num_poste": "02381001", "commune": "HIRSON", "ficheClimComplete": 0, "ficheClimReduite": 0, "alti": 165, "url_metadata": "https://donneespubliques.meteofrance.fr/metadonnees_publiques/fiches/fiche_02381001.pdf" }, "geometry": { "type": "Point", "coordinates": [ 4.077167, 49.922 ] } },
{ "type": "Feature", "properties": { "index": "32", "lat": 49.485667, "lon": 3.693167, "nom_usuel": "MARTIGNY-COURPI", "num_poste": "02471001", "commune": "MARTIGNY-COURPIERRE", "ficheClimComplete": 0, "ficheClimReduite": 1, "alti": 95, "url_metadata": "https://donneespubliques.meteofrance.fr/metadonnees_publiques/fiches/fiche_02471001.pdf" }, "geometry": { "type": "Point", "coordinates": [ 3.693167, 49.485667 ] } },
{ "type": "Feature", "properties": { "index": "33", "lat": 49.280167, "lon": 3.331, "nom_usuel": "PARCY-ET-TIGNY", "num_poste": "02585001", "commune": "PARCY-ET-TIGNY", "ficheClimComplete": 0, "ficheClimReduite": 0, "alti": 148, "url_metadata": "https://donneespubliques.meteofrance.fr/metadonnees_publiques/fiches/fiche_02585001.pdf" }, "geometry": { "type": "Point", "coordinates": [ 3.331, 49.280167 ] } },
{ "type": "Feature", "properties": { "index": "34", "lat": 49.566, "lon": 4.0365, "nom_usuel": "NIZY-LE-COMTE", "num_poste": "02705001", "commune": "NIZY-LE-COMTE", "ficheClimComplete": 1, "ficheClimReduite": 1, "alti": 90, "url_metadata": "https://donneespubliques.meteofrance.fr/metadonnees_publiques/fiches/fiche_02705001.pdf" }, "geometry": { "type": "Point", "coordinates": [ 4.0365, 49.566 ] } },
{ "type": "Feature", "properties": { "index": "35", "lat": 49.663833, "lon": 3.320667, "nom_usuel": "TERGNIER", "num_poste": "02738001", "commune": "TERGNIER", "ficheClimComplete": 0, "ficheClimReduite": 0, "alti": 59, "url_metadata": "https://donneespubliques.meteofrance.fr/metadonnees_publiques/fiches/fiche_02738001.pdf" }, "geometry": { "type": "Point", "coordinates": [ 3.320667, 49.663833 ] } },
{ "type": "Feature", "properties": { "index": "36", "lat": 46.163667, "lon": 3.7355, "nom_usuel": "ARFEUILLES", "num_poste": "03006003", "commune": "ARFEUILLES", "ficheClimComplete": 0, "ficheClimReduite": 1, "alti": 450, "url_metadata": "https://donneespubliques.meteofrance.fr/metadonnees_publiques/fiches/fiche_03006003.pdf" }, "geometry": { "type": "Point", "coordinates": [ 3.7355, 46.163667 ] } },
{ "type": "Feature", "properties": { "index": "37", "lat": 46.58, "lon": 3.0495, "nom_usuel": "BOURBON_SAPC", "num_poste": "03036002", "commune": "BOURBON-L'ARCHAMBAULT", "ficheClimComplete": 0, "ficheClimReduite": 1, "alti": 270, "url_metadata": "https://donneespubliques.meteofrance.fr/metadonnees_publiques/fiches/fiche_03036002.pdf" }, "geometry": { "type": "Point", "coordinates": [ 3.0495, 46.58 ] } },
{ "type": "Feature", "properties": { "index": "38", "lat": 46.275833, "lon": 3.225667, "nom_usuel": "CHAREIL-CINTRAT_SAPC", "num_poste": "03059001", "commune": "CHAREIL-CINTRAT", "ficheClimComplete": 0, "ficheClimReduite": 1, "alti": 286, "url_metadata": "https://donneespubliques.meteofrance.fr/metadonnees_publiques/fiches/fiche_03059001.pdf" }, "geometry": { "type": "Point", "coordinates": [ 3.225667, 46.275833 ] } },
{ "type": "Feature", "properties": { "index": "39", "lat": 46.166667, "lon": 3.398667, "nom_usuel": "VICHY-CHARMEIL", "num_poste": "03060001", "commune": "CHARMEIL", "ficheClimComplete": 1, "ficheClimReduite": 1, "alti": 249, "url_metadata": "https://donneespubliques.meteofrance.fr/metadonnees_publiques/fiches/fiche_03060001.pdf" }, "geometry": { "type": "Point", "coordinates": [ 3.398667, 46.166667 ] } },
{ "type": "Feature", "properties": { "index": "40", "lat": 46.0635, "lon": 3.233667, "nom_usuel": "CHARMES_SAPC", "num_poste": "03061001", "commune": "CHARMES", "ficheClimComplete": 0, "ficheClimReduite": 1, "alti": 330, "url_metadata": "https://donneespubliques.meteofrance.fr/metadonnees_publiques/fiches/fiche_03061001.pdf" }, "geometry": { "type": "Point", "coordinates": [ 3.233667, 46.0635 ] } },
{ "type": "Feature", "properties": { "index": "41", "lat": 46.630667, "lon": 3.549167, "nom_usuel": "CHEVAGNES", "num_poste": "03074001", "commune": "CHEVAGNES", "ficheClimComplete": 0, "ficheClimReduite": 0, "alti": 228, "url_metadata": "https://donneespubliques.meteofrance.fr/metadonnees_publiques/fiches/fiche_03074001.pdf" }, "geometry": { "type": "Point", "coordinates": [ 3.549167, 46.630667 ] } },
{ "type": "Feature", "properties": { "index": "42", "lat": 46.541667, "lon": 3.706667, "nom_usuel": "DIOU", "num_poste": "03100001", "commune": "DIOU", "ficheClimComplete": 0, "ficheClimReduite": 1, "alti": 220, "url_metadata": "https://donneespubliques.meteofrance.fr/metadonnees_publiques/fiches/fiche_03100001.pdf" }, "geometry": { "type": "Point", "coordinates": [ 3.706667, 46.541667 ] } },
{ "type": "Feature", "properties": { "index": "43", "lat": 46.251667, "lon": 2.695667, "nom_usuel": "DURDAT-LAREQUILLE", "num_poste": "03106002", "commune": "DURDAT-LAREQUILLE", "ficheClimComplete": 0, "ficheClimReduite": 1, "alti": 500, "url_metadata": "https://donneespubliques.meteofrance.fr/metadonnees_publiques/fiches/fiche_03106002.pdf" }, "geometry": { "type": "Point", "coordinates": [ 2.695667, 46.251667 ] } },
{ "type": "Feature", "properties": { "index": "44", "lat": 46.191167, "lon": 2.957667, "nom_usuel": "ECHASSIERES_SAPC", "num_poste": "03108001", "commune": "ECHASSIERES", "ficheClimComplete": 0, "ficheClimReduite": 1, "alti": 650, "url_metadata": "https://donneespubliques.meteofrance.fr/metadonnees_publiques/fiches/fiche_03108001.pdf" }, "geometry": { "type": "Point", "coordinates": [ 2.957667, 46.191167 ] } },
{ "type": "Feature", "properties": { "index": "45", "lat": 46.375333, "lon": 3.330167, "nom_usuel": "FERTE-HAUTERIVE", "num_poste": "03114001", "commune": "LA FERTE-HAUTERIVE", "ficheClimComplete": 0, "ficheClimReduite": 0, "alti": 226, "url_metadata": "https://donneespubliques.meteofrance.fr/metadonnees_publiques/fiches/fiche_03114001.pdf" }, "geometry": { "type": "Point", "coordinates": [ 3.330167, 46.375333 ] } },
{ "type": "Feature", "properties": { "index": "46", "lat": 45.984667, "lon": 3.639833, "nom_usuel": "LA GUILLERMIE", "num_poste": "03125001", "commune": "LA GUILLERMIE", "ficheClimComplete": 0, "ficheClimReduite": 0, "alti": 722, "url_metadata": "https://donneespubliques.meteofrance.fr/metadonnees_publiques/fiches/fiche_03125001.pdf" }, "geometry": { "type": "Point", "coordinates": [ 3.639833, 45.984667 ] } },
{ "type": "Feature", "properties": { "index": "47", "lat": 46.663333, "lon": 2.730167, "nom_usuel": "ISLE-ET-BARDAIS", "num_poste": "03130002", "commune": "ISLE-ET-BARDAIS", "ficheClimComplete": 0, "ficheClimReduite": 1, "alti": 262, "url_metadata": "https://donneespubliques.meteofrance.fr/metadonnees_publiques/fiches/fiche_03130002.pdf" }, "geometry": { "type": "Point", "coordinates": [ 2.730167, 46.663333 ] } },
{ "type": "Feature", "properties": { "index": "48", "lat": 46.303667, "lon": 3.241833, "nom_usuel": "LOUCHY-MONTFAND", "num_poste": "03149002", "commune": "LOUCHY-MONTFAND", "ficheClimComplete": 0, "ficheClimReduite": 1, "alti": 280, "url_metadata": "https://donneespubliques.meteofrance.fr/metadonnees_publiques/fiches/fiche_03149002.pdf" }, "geometry": { "type": "Point", "coordinates": [ 3.241833, 46.303667 ] } },
{ "type": "Feature", "properties": { "index": "49", "lat": 46.730167, "lon": 2.935167, "nom_usuel": "LURCY-LEVIS", "num_poste": "03155001", "commune": "LURCY-LEVIS", "ficheClimComplete": 0, "ficheClimReduite": 1, "alti": 206, "url_metadata": "https://donneespubliques.meteofrance.fr/metadonnees_publiques/fiches/fiche_03155001.pdf" }, "geometry": { "type": "Point", "coordinates": [ 2.935167, 46.730167 ] } },
{ "type": "Feature", "properties": { "index": "50", "lat": 46.718333, "lon": 2.947667, "nom_usuel": "LURCY-LEVIS SA", "num_poste": "03155003", "commune": "LURCY-LEVIS", "ficheClimComplete": 1, "ficheClimReduite": 1, "alti": 225, "url_metadata": "https://donneespubliques.meteofrance.fr/metadonnees_publiques/fiches/fiche_03155003.pdf" }, "geometry": { "type": "Point", "coordinates": [ 2.947667, 46.718333 ] } },
{ "type": "Feature", "properties": { "index": "51", "lat": 46.581667, "lon": 3.195833, "nom_usuel": "MARIGNY", "num_poste": "03162001", "commune": "MARIGNY", "ficheClimComplete": 0, "ficheClimReduite": 0, "alti": 249, "url_metadata": "https://donneespubliques.meteofrance.fr/metadonnees_publiques/fiches/fiche_03162001.pdf" }, "geometry": { "type": "Point", "coordinates": [ 3.195833, 46.581667 ] } },
{ "type": "Feature", "properties": { "index": "52", "lat": 46.076833, "lon": 3.684, "nom_usuel": "MAYET-DE-MONTAG", "num_poste": "03165001", "commune": "LE MAYET-DE-MONTAGNE", "ficheClimComplete": 0, "ficheClimReduite": 1, "alti": 542, "url_metadata": "https://donneespubliques.meteofrance.fr/metadonnees_publiques/fiches/fiche_03165001.pdf" }, "geometry": { "type": "Point", "coordinates": [ 3.684, 46.076833 ] } },
{ "type": "Feature", "properties": { "index": "53", "lat": 46.536333, "lon": 3.423167, "nom_usuel": "MONTBEUGNY", "num_poste": "03180001", "commune": "TOULON-SUR-ALLIER", "ficheClimComplete": 1, "ficheClimReduite": 1, "alti": 275, "url_metadata": "https://donneespubliques.meteofrance.fr/metadonnees_publiques/fiches/fiche_03180001.pdf" }, "geometry": { "type": "Point", "coordinates": [ 3.423167, 46.536333 ] } },
{ "type": "Feature", "properties": { "index": "54", "lat": 46.355167, "lon": 2.574667, "nom_usuel": "MONTLUCON", "num_poste": "03185007", "commune": "DOMERAT", "ficheClimComplete": 1, "ficheClimReduite": 1, "alti": 229, "url_metadata": "https://donneespubliques.meteofrance.fr/metadonnees_publiques/fiches/fiche_03185007.pdf" }, "geometry": { "type": "Point", "coordinates": [ 2.574667, 46.355167 ] } },
{ "type": "Feature", "properties": { "index": "55", "lat": 46.314833, "lon": 2.9525, "nom_usuel": "MONTMARAULT", "num_poste": "03186001", "commune": "MONTMARAULT", "ficheClimComplete": 0, "ficheClimReduite": 1, "alti": 466, "url_metadata": "https://donneespubliques.meteofrance.fr/metadonnees_publiques/fiches/fiche_03186001.pdf" }, "geometry": { "type": "Point", "coordinates": [ 2.9525, 46.314833 ] } },
{ "type": "Feature", "properties": { "index": "56", "lat": 46.2835, "lon": 3.337833, "nom_usuel": "PARAY-SOUS-BRIAILLES", "num_poste": "03204001", "commune": "PARAY-SOUS-BRIAILLES", "ficheClimComplete": 0, "ficheClimReduite": 1, "alti": 250, "url_metadata": "https://donneespubliques.meteofrance.fr/metadonnees_publiques/fiches/fiche_03204001.pdf" }, "geometry": { "type": "Point", "coordinates": [ 3.337833, 46.2835 ] } },
{ "type": "Feature", "properties": { "index": "57", "lat": 46.365333, "lon": 3.850167, "nom_usuel": "SAINT DIDIER_SAPC", "num_poste": "03226001", "commune": "SAINT-DIDIER-EN-DONJON", "ficheClimComplete": 0, "ficheClimReduite": 1, "alti": 293, "url_metadata": "https://donneespubliques.meteofrance.fr/metadonnees_publiques/fiches/fiche_03226001.pdf" }, "geometry": { "type": "Point", "coordinates": [ 3.850167, 46.365333 ] } },
{ "type": "Feature", "properties": { "index": "58", "lat": 46.4025, "lon": 3.685833, "nom_usuel": "ST-LEON", "num_poste": "03240001", "commune": "SAINT-LEON", "ficheClimComplete": 0, "ficheClimReduite": 1, "alti": 378, "url_metadata": "https://donneespubliques.meteofrance.fr/metadonnees_publiques/fiches/fiche_03240001.pdf" }, "geometry": { "type": "Point", "coordinates": [ 3.685833, 46.4025 ] } },
{ "type": "Feature", "properties": { "index": "59", "lat": 46.0515, "lon": 3.805167, "nom_usuel": "ST-NICOLAS", "num_poste": "03248001", "commune": "SAINT-NICOLAS-DES-BIEFS", "ficheClimComplete": 1, "ficheClimReduite": 1, "alti": 1022, "url_metadata": "https://donneespubliques.meteofrance.fr/metadonnees_publiques/fiches/fiche_03248001.pdf" }, "geometry": { "type": "Point", "coordinates": [ 3.805167, 46.0515 ] } },
{ "type": "Feature", "properties": { "index": "60", "lat": 46.451333, "lon": 2.857, "nom_usuel": "TORTEZAIS_SAPC", "num_poste": "03285001", "commune": "TORTEZAIS", "ficheClimComplete": 1, "ficheClimReduite": 1, "alti": 256, "url_metadata": "https://donneespubliques.meteofrance.fr/metadonnees_publiques/fiches/fiche_03285001.pdf" }, "geometry": { "type": "Point", "coordinates": [ 2.857, 46.451333 ] } },
{ "type": "Feature", "properties": { "index": "61", "lat": 46.117667, "lon": 3.439, "nom_usuel": "VICHY-VILLE", "num_poste": "03310001", "commune": "VICHY", "ficheClimComplete": 0, "ficheClimReduite": 1, "alti": 255, "url_metadata": "https://donneespubliques.meteofrance.fr/metadonnees_publiques/fiches/fiche_03310001.pdf" }, "geometry": { "type": "Point", "coordinates": [ 3.439, 46.117667 ] } },
{ "type": "Feature", "properties": { "index": "62", "lat": 46.579167, "lon": 3.352833, "nom_usuel": "YZEURE", "num_poste": "03321001", "commune": "YZEURE", "ficheClimComplete": 0, "ficheClimReduite": 1, "alti": 242, "url_metadata": "https://donneespubliques.meteofrance.fr/metadonnees_publiques/fiches/fiche_03321001.pdf" }, "geometry": { "type": "Point", "coordinates": [ 3.352833, 46.579167 ] } },
{ "type": "Feature", "properties": { "index": "63", "lat": 44.2425, "lon": 6.625333, "nom_usuel": "ALLOS_SAPC", "num_poste": "04006005", "commune": "ALLOS", "ficheClimComplete": 0, "ficheClimReduite": 1, "alti": 1400, "url_metadata": "https://donneespubliques.meteofrance.fr/metadonnees_publiques/fiches/fiche_04006005.pdf" }, "geometry": { "type": "Point", "coordinates": [ 6.625333, 44.2425 ] } },
{ "type": "Feature", "properties": { "index": "64", "lat": 44.391167, "lon": 6.670167, "nom_usuel": "BARCELONNETTE", "num_poste": "04019001", "commune": "FAUCON-DE-BARCELONNETTE", "ficheClimComplete": 1, "ficheClimReduite": 1, "alti": 1155, "url_metadata": "https://donneespubliques.meteofrance.fr/metadonnees_publiques/fiches/fiche_04019001.pdf" }, "geometry": { "type": "Point", "coordinates": [ 6.670167, 44.391167 ] } },
{ "type": "Feature", "properties": { "index": "65", "lat": 43.957167, "lon": 6.372333, "nom_usuel": "BARREME", "num_poste": "04022001", "commune": "BARREME", "ficheClimComplete": 0, "ficheClimReduite": 0, "alti": 743, "url_metadata": "https://donneespubliques.meteofrance.fr/metadonnees_publiques/fiches/fiche_04022001.pdf" }, "geometry": { "type": "Point", "coordinates": [ 6.372333, 43.957167 ] } },
{ "type": "Feature", "properties": { "index": "66", "lat": 44.342667, "lon": 6.178667, "nom_usuel": "BAYONS", "num_poste": "04023001", "commune": "BAYONS", "ficheClimComplete": 0, "ficheClimReduite": 0, "alti": 886, "url_metadata": "https://donneespubliques.meteofrance.fr/metadonnees_publiques/fiches/fiche_04023001.pdf" }, "geometry": { "type": "Point", "coordinates": [ 6.178667, 44.342667 ] } },
{ "type": "Feature", "properties": { "index": "67", "lat": 44.209833, "lon": 6.385167, "nom_usuel": "BEAUJEU ST PIERRE", "num_poste": "04024004", "commune": "BEAUJEU", "ficheClimComplete": 0, "ficheClimReduite": 0, "alti": 960, "url_metadata": "https://donneespubliques.meteofrance.fr/metadonnees_publiques/fiches/fiche_04024004.pdf" }, "geometry": { "type": "Point", "coordinates": [ 6.385167, 44.209833 ] } },
{ "type": "Feature", "properties": { "index": "68", "lat": 43.849167, "lon": 6.508, "nom_usuel": "CASTELLANE", "num_poste": "04039001", "commune": "CASTELLANE", "ficheClimComplete": 0, "ficheClimReduite": 1, "alti": 729, "url_metadata": "https://donneespubliques.meteofrance.fr/metadonnees_publiques/fiches/fiche_04039001.pdf" }, "geometry": { "type": "Point", "coordinates": [ 6.508, 43.849167 ] } },
{ "type": "Feature", "properties": { "index": "69", "lat": 43.938333, "lon": 5.9795, "nom_usuel": "LE CASTELLET", "num_poste": "04041001", "commune": "LE CASTELLET", "ficheClimComplete": 0, "ficheClimReduite": 0, "alti": 473, "url_metadata": "https://donneespubliques.meteofrance.fr/metadonnees_publiques/fiches/fiche_04041001.pdf" }, "geometry": { "type": "Point", "coordinates": [ 5.9795, 43.938333 ] } },
{ "type": "Feature", "properties": { "index": "70", "lat": 44.062167, "lon": 5.989667, "nom_usuel": "ST AUBAN", "num_poste": "04049001", "commune": "CHATEAU-ARNOUX-SAINT-AUBAN", "ficheClimComplete": 1, "ficheClimReduite": 1, "alti": 458, "url_metadata": "https://donneespubliques.meteofrance.fr/metadonnees_publiques/fiches/fiche_04049001.pdf" }, "geometry": { "type": "Point", "coordinates": [ 5.989667, 44.062167 ] } },
{ "type": "Feature", "properties": { "index": "71", "lat": 43.909833, "lon": 5.767167, "nom_usuel": "DAUPHIN", "num_poste": "04068001", "commune": "DAUPHIN", "ficheClimComplete": 1, "ficheClimReduite": 1, "alti": 427, "url_metadata": "https://donneespubliques.meteofrance.fr/metadonnees_publiques/fiches/fiche_04068001.pdf" }, "geometry": { "type": "Point", "coordinates": [ 5.767167, 43.909833 ] } },
{ "type": "Feature", "properties": { "index": "72", "lat": 44.07, "lon": 6.186667, "nom_usuel": "DIGNE LES BAINS", "num_poste": "04070009", "commune": "DIGNE-LES-BAINS", "ficheClimComplete": 1, "ficheClimReduite": 1, "alti": 554, "url_metadata": "https://donneespubliques.meteofrance.fr/metadonnees_publiques/fiches/fiche_04070009.pdf" }, "geometry": { "type": "Point", "coordinates": [ 6.186667, 44.07 ] } },
{ "type": "Feature", "properties": { "index": "73", "lat": 44.413667, "lon": 6.725167, "nom_usuel": "JAUSIERS-ST ANNE", "num_poste": "04096002", "commune": "JAUSIERS", "ficheClimComplete": 0, "ficheClimReduite": 1, "alti": 1240, "url_metadata": "https://donneespubliques.meteofrance.fr/metadonnees_publiques/fiches/fiche_04096002.pdf" }, "geometry": { "type": "Point", "coordinates": [ 6.725167, 44.413667 ] } },
{ "type": "Feature", "properties": { "index": "74", "lat": 44.34, "lon": 6.8, "nom_usuel": "RESTEFOND-NIVOSE", "num_poste": "04096401", "commune": "JAUSIERS", "ficheClimComplete": 0, "ficheClimReduite": 0, "alti": 2550, "url_metadata": "https://donneespubliques.meteofrance.fr/metadonnees_publiques/fiches/fiche_04096401.pdf" }, "geometry": { "type": "Point", "coordinates": [ 6.8, 44.34 ] } },
{ "type": "Feature", "properties": { "index": "75", "lat": 44.031167, "lon": 6.6295, "nom_usuel": "MEAILLES_SAPC", "num_poste": "04115001", "commune": "MEAILLES", "ficheClimComplete": 0, "ficheClimReduite": 1, "alti": 1090, "url_metadata": "https://donneespubliques.meteofrance.fr/metadonnees_publiques/fiches/fiche_04115001.pdf" }, "geometry": { "type": "Point", "coordinates": [ 6.6295, 44.031167 ] } },
{ "type": "Feature", "properties": { "index": "76", "lat": 44.391833, "lon": 6.333333, "nom_usuel": "MONTCLAR_SAPC", "num_poste": "04126001", "commune": "MONTCLAR", "ficheClimComplete": 0, "ficheClimReduite": 1, "alti": 1197, "url_metadata": "https://donneespubliques.meteofrance.fr/metadonnees_publiques/fiches/fiche_04126001.pdf" }, "geometry": { "type": "Point", "coordinates": [ 6.333333, 44.391833 ] } },
{ "type": "Feature", "properties": { "index": "77", "lat": 44.326667, "lon": 6.0305, "nom_usuel": "LA MOTTE DU CAIRE", "num_poste": "04134002", "commune": "LA MOTTE-DU-CAIRE", "ficheClimComplete": 0, "ficheClimReduite": 0, "alti": 665, "url_metadata": "https://donneespubliques.meteofrance.fr/metadonnees_publiques/fiches/fiche_04134002.pdf" }, "geometry": { "type": "Point", "coordinates": [ 6.0305, 44.326667 ] } },
{ "type": "Feature", "properties": { "index": "78", "lat": 43.977, "lon": 6.520167, "nom_usuel": "LA MURE-ARGENS", "num_poste": "04136001", "commune": "LA MURE-ARGENS", "ficheClimComplete": 0, "ficheClimReduite": 1, "alti": 920, "url_metadata": "https://donneespubliques.meteofrance.fr/metadonnees_publiques/fiches/fiche_04136001.pdf" }, "geometry": { "type": "Point", "coordinates": [ 6.520167, 43.977 ] } },
{ "type": "Feature", "properties": { "index": "79", "lat": 43.900833, "lon": 6.2005, "nom_usuel": "ST JURS", "num_poste": "04184001", "commune": "SAINT-JURS", "ficheClimComplete": 0, "ficheClimReduite": 1, "alti": 867, "url_metadata": "https://donneespubliques.meteofrance.fr/metadonnees_publiques/fiches/fiche_04184001.pdf" }, "geometry": { "type": "Point", "coordinates": [ 6.2005, 43.900833 ] } },
{ "type": "Feature", "properties": { "index": "80", "lat": 44.2245, "lon": 5.916, "nom_usuel": "SISTERON", "num_poste": "04209005", "commune": "SISTERON", "ficheClimComplete": 1, "ficheClimReduite": 1, "alti": 500, "url_metadata": "https://donneespubliques.meteofrance.fr/metadonnees_publiques/fiches/fiche_04209005.pdf" }, "geometry": { "type": "Point", "coordinates": [ 5.916, 44.2245 ] } },
{ "type": "Feature", "properties": { "index": "81", "lat": 44.399, "lon": 6.1695, "nom_usuel": "TURRIERS", "num_poste": "04222001", "commune": "TURRIERS", "ficheClimComplete": 0, "ficheClimReduite": 1, "alti": 1020, "url_metadata": "https://donneespubliques.meteofrance.fr/metadonnees_publiques/fiches/fiche_04222001.pdf" }, "geometry": { "type": "Point", "coordinates": [ 6.1695, 44.399 ] } },
{ "type": "Feature", "properties": { "index": "82", "lat": 43.8395, "lon": 6.000833, "nom_usuel": "VALENSOLE", "num_poste": "04230001", "commune": "VALENSOLE", "ficheClimComplete": 0, "ficheClimReduite": 1, "alti": 600, "url_metadata": "https://donneespubliques.meteofrance.fr/metadonnees_publiques/fiches/fiche_04230001.pdf" }, "geometry": { "type": "Point", "coordinates": [ 6.000833, 43.8395 ] } },
{ "type": "Feature", "properties": { "index": "83", "lat": 44.6245, "lon": 6.209833, "nom_usuel": "ANCELLE", "num_poste": "05004001", "commune": "ANCELLE", "ficheClimComplete": 0, "ficheClimReduite": 0, "alti": 1354, "url_metadata": "https://donneespubliques.meteofrance.fr/metadonnees_publiques/fiches/fiche_05004001.pdf" }, "geometry": { "type": "Point", "coordinates": [ 6.209833, 44.6245 ] } },
{ "type": "Feature", "properties": { "index": "84", "lat": 44.781167, "lon": 6.736667, "nom_usuel": "ARVIEUX LA CHALP", "num_poste": "05007001", "commune": "ARVIEUX", "ficheClimComplete": 0, "ficheClimReduite": 1, "alti": 1690, "url_metadata": "https://donneespubliques.meteofrance.fr/metadonnees_publiques/fiches/fiche_05007001.pdf" }, "geometry": { "type": "Point", "coordinates": [ 6.736667, 44.781167 ] } },
{ "type": "Feature", "properties": { "index": "85", "lat": 44.796, "lon": 6.728, "nom_usuel": "ARVIEUX", "num_poste": "05007003", "commune": "ARVIEUX", "ficheClimComplete": 0, "ficheClimReduite": 1, "alti": 1825, "url_metadata": "https://donneespubliques.meteofrance.fr/metadonnees_publiques/fiches/fiche_05007003.pdf" }, "geometry": { "type": "Point", "coordinates": [ 6.728, 44.796 ] } },
{ "type": "Feature", "properties": { "index": "86", "lat": 44.671167, "lon": 6.776167, "nom_usuel": "CEILLAC", "num_poste": "05026001", "commune": "CEILLAC", "ficheClimComplete": 0, "ficheClimReduite": 1, "alti": 1665, "url_metadata": "https://donneespubliques.meteofrance.fr/metadonnees_publiques/fiches/fiche_05026001.pdf" }, "geometry": { "type": "Point", "coordinates": [ 6.776167, 44.671167 ] } },
{ "type": "Feature", "properties": { "index": "87", "lat": 44.869333, "lon": 6.7235, "nom_usuel": "CERVIERES", "num_poste": "05027001", "commune": "CERVIERES", "ficheClimComplete": 0, "ficheClimReduite": 0, "alti": 1614, "url_metadata": "https://donneespubliques.meteofrance.fr/metadonnees_publiques/fiches/fiche_05027001.pdf" }, "geometry": { "type": "Point", "coordinates": [ 6.7235, 44.869333 ] } },
{ "type": "Feature", "properties": { "index": "88", "lat": 44.759333, "lon": 6.809, "nom_usuel": "CHATEAU-VILLE-VIEILLE", "num_poste": "05038001", "commune": "CHATEAU-VILLE-VIEILLE", "ficheClimComplete": 0, "ficheClimReduite": 0, "alti": 1355, "url_metadata": "https://donneespubliques.meteofrance.fr/metadonnees_publiques/fiches/fiche_05038001.pdf" }, "geometry": { "type": "Point", "coordinates": [ 6.809, 44.759333 ] } },
{ "type": "Feature", "properties": { "index": "89", "lat": 44.495333, "lon": 6.636333, "nom_usuel": "PARPAILLON-NIVOSE", "num_poste": "05044400", "commune": "CREVOUX", "ficheClimComplete": 0, "ficheClimReduite": 0, "alti": 2545, "url_metadata": "https://donneespubliques.meteofrance.fr/metadonnees_publiques/fiches/fiche_05044400.pdf" }, "geometry": { "type": "Point", "coordinates": [ 6.636333, 44.495333 ] } },
{ "type": "Feature", "properties": { "index": "90", "lat": 44.571167, "lon": 6.508667, "nom_usuel": "EMBRUN", "num_poste": "05046001", "commune": "EMBRUN", "ficheClimComplete": 1, "ficheClimReduite": 1, "alti": 873, "url_metadata": "https://donneespubliques.meteofrance.fr/metadonnees_publiques/fiches/fiche_05046001.pdf" }, "geometry": { "type": "Point", "coordinates": [ 6.508667, 44.571167 ] } },
{ "type": "Feature", "properties": { "index": "91", "lat": 44.566667, "lon": 5.750167, "nom_usuel": "LA FAURIE", "num_poste": "05055001", "commune": "LA FAURIE", "ficheClimComplete": 0, "ficheClimReduite": 1, "alti": 825, "url_metadata": "https://donneespubliques.meteofrance.fr/metadonnees_publiques/fiches/fiche_05055001.pdf" }, "geometry": { "type": "Point", "coordinates": [ 5.750167, 44.566667 ] } },
{ "type": "Feature", "properties": { "index": "92", "lat": 44.577667, "lon": 6.079833, "nom_usuel": "GAP", "num_poste": "05061009", "commune": "GAP", "ficheClimComplete": 1, "ficheClimReduite": 1, "alti": 885, "url_metadata": "https://donneespubliques.meteofrance.fr/metadonnees_publiques/fiches/fiche_05061009.pdf" }, "geometry": { "type": "Point", "coordinates": [ 6.079833, 44.577667 ] } },
{ "type": "Feature", "properties": { "index": "93", "lat": 45.012333, "lon": 6.265167, "nom_usuel": "LA MEIJE-NIVOSE", "num_poste": "05063402", "commune": "LA GRAVE", "ficheClimComplete": 0, "ficheClimReduite": 0, "alti": 3093, "url_metadata": "https://donneespubliques.meteofrance.fr/metadonnees_publiques/fiches/fiche_05063402.pdf" }, "geometry": { "type": "Point", "coordinates": [ 6.265167, 45.012333 ] } },
{ "type": "Feature", "properties": { "index": "94", "lat": 44.81, "lon": 6.195333, "nom_usuel": "CHAPELLE-EN-VALGAUDEMAR", "num_poste": "05064001", "commune": "LA CHAPELLE-EN-VALGAUDEMAR", "ficheClimComplete": 0, "ficheClimReduite": 1, "alti": 1270, "url_metadata": "https://donneespubliques.meteofrance.fr/metadonnees_publiques/fiches/fiche_05064001.pdf" }, "geometry": { "type": "Point", "coordinates": [ 6.195333, 44.81 ] } },
{ "type": "Feature", "properties": { "index": "95", "lat": 44.316667, "lon": 5.827, "nom_usuel": "LARAGNE-MONTEGLIN", "num_poste": "05070001", "commune": "LARAGNE-MONTEGLIN", "ficheClimComplete": 0, "ficheClimReduite": 1, "alti": 575, "url_metadata": "https://donneespubliques.meteofrance.fr/metadonnees_publiques/fiches/fiche_05070001.pdf" }, "geometry": { "type": "Point", "coordinates": [ 5.827, 44.316667 ] } },
{ "type": "Feature", "properties": { "index": "96", "lat": 44.319167, "lon": 5.7945, "nom_usuel": "LARAGNE MONTEGLIN", "num_poste": "05070003", "commune": "LARAGNE-MONTEGLIN", "ficheClimComplete": 1, "ficheClimReduite": 1, "alti": 565, "url_metadata": "https://donneespubliques.meteofrance.fr/metadonnees_publiques/fiches/fiche_05070003.pdf" }, "geometry": { "type": "Point", "coordinates": [ 5.7945, 44.319167 ] } },
{ "type": "Feature", "properties": { "index": "97", "lat": 44.686, "lon": 6.972167, "nom_usuel": "COL AGNEL-NIVOSE", "num_poste": "05077402", "commune": "MOLINES-EN-QUEYRAS", "ficheClimComplete": 0, "ficheClimReduite": 0, "alti": 2630, "url_metadata": "https://donneespubliques.meteofrance.fr/metadonnees_publiques/fiches/fiche_05077402.pdf" }, "geometry": { "type": "Point", "coordinates": [ 6.972167, 44.686 ] } },
{ "type": "Feature", "properties": { "index": "98", "lat": 44.9715, "lon": 6.514167, "nom_usuel": "LE MONETIER LES BAINS", "num_poste": "05079001", "commune": "LE MONETIER-LES-BAINS", "ficheClimComplete": 0, "ficheClimReduite": 1, "alti": 1459, "url_metadata": "https://donneespubliques.meteofrance.fr/metadonnees_publiques/fiches/fiche_05079001.pdf" }, "geometry": { "type": "Point", "coordinates": [ 6.514167, 44.9715 ] } },
{ "type": "Feature", "properties": { "index": "99", "lat": 45.056833, "lon": 6.377167, "nom_usuel": "GALIBIER-NIVOSE", "num_poste": "05079402", "commune": "LE MONETIER-LES-BAINS", "ficheClimComplete": 0, "ficheClimReduite": 0, "alti": 2559, "url_metadata": "https://donneespubliques.meteofrance.fr/metadonnees_publiques/fiches/fiche_05079402.pdf" }, "geometry": { "type": "Point", "coordinates": [ 6.377167, 45.056833 ] } },
{ "type": "Feature", "properties": { "index": "100", "lat": 44.748167, "lon": 6.122833, "nom_usuel": "MOTTE-MOLINES", "num_poste": "05090002", "commune": "LA MOTTE-EN-CHAMPSAUR", "ficheClimComplete": 0, "ficheClimReduite": 0, "alti": 1250, "url_metadata": "https://donneespubliques.meteofrance.fr/metadonnees_publiques/fiches/fiche_05090002.pdf" }, "geometry": { "type": "Point", "coordinates": [ 6.122833, 44.748167 ] } },
{ "type": "Feature", "properties": { "index": "101", "lat": 45.0185, "lon": 6.622333, "nom_usuel": "NEVACHE-EDF-03", "num_poste": "05093001", "commune": "NEVACHE", "ficheClimComplete": 0, "ficheClimReduite": 1, "alti": 1603, "url_metadata": "https://donneespubliques.meteofrance.fr/metadonnees_publiques/fiches/fiche_05093001.pdf" }, "geometry": { "type": "Point", "coordinates": [ 6.622333, 45.0185 ] } },
{ "type": "Feature", "properties": { "index": "102", "lat": 44.719, "lon": 6.333667, "nom_usuel": "ORCIERES-NIVOSE", "num_poste": "05096404", "commune": "ORCIERES", "ficheClimComplete": 0, "ficheClimReduite": 0, "alti": 2280, "url_metadata": "https://donneespubliques.meteofrance.fr/metadonnees_publiques/fiches/fiche_05096404.pdf" }, "geometry": { "type": "Point", "coordinates": [ 6.333667, 44.719 ] } },
{ "type": "Feature", "properties": { "index": "103", "lat": 44.508833, "lon": 6.559333, "nom_usuel": "LES ORRES", "num_poste": "05098001", "commune": "LES ORRES", "ficheClimComplete": 0, "ficheClimReduite": 1, "alti": 1457, "url_metadata": "https://donneespubliques.meteofrance.fr/metadonnees_publiques/fiches/fiche_05098001.pdf" }, "geometry": { "type": "Point", "coordinates": [ 6.559333, 44.508833 ] } },
{ "type": "Feature", "properties": { "index": "104", "lat": 44.866833, "lon": 6.486667, "nom_usuel": "PELVOUX", "num_poste": "05101001", "commune": "VALLOUISE-PELVOUX", "ficheClimComplete": 0, "ficheClimReduite": 1, "alti": 1270, "url_metadata": "https://donneespubliques.meteofrance.fr/metadonnees_publiques/fiches/fiche_05101001.pdf" }, "geometry": { "type": "Point", "coordinates": [ 6.486667, 44.866833 ] } },
{ "type": "Feature", "properties": { "index": "105", "lat": 44.828833, "lon": 6.492667, "nom_usuel": "PUY-ST-VINCENT", "num_poste": "05110001", "commune": "PUY-SAINT-VINCENT", "ficheClimComplete": 0, "ficheClimReduite": 0, "alti": 1388, "url_metadata": "https://donneespubliques.meteofrance.fr/metadonnees_publiques/fiches/fiche_05110001.pdf" }, "geometry": { "type": "Point", "coordinates": [ 6.492667, 44.828833 ] } },
{ "type": "Feature", "properties": { "index": "106", "lat": 44.765667, "lon": 6.9845, "nom_usuel": "RISTOLAS", "num_poste": "05120002", "commune": "ABRIES-RISTOLAS", "ficheClimComplete": 0, "ficheClimReduite": 1, "alti": 1670, "url_metadata": "https://donneespubliques.meteofrance.fr/metadonnees_publiques/fiches/fiche_05120002.pdf" }, "geometry": { "type": "Point", "coordinates": [ 6.9845, 44.765667 ] } },
{ "type": "Feature", "properties": { "index": "107", "lat": 44.3875, "lon": 5.462167, "nom_usuel": "ROSANS", "num_poste": "05126001", "commune": "ROSANS", "ficheClimComplete": 1, "ficheClimReduite": 1, "alti": 625, "url_metadata": "https://donneespubliques.meteofrance.fr/metadonnees_publiques/fiches/fiche_05126001.pdf" }, "geometry": { "type": "Point", "coordinates": [ 5.462167, 44.3875 ] } },
{ "type": "Feature", "properties": { "index": "108", "lat": 44.684167, "lon": 6.072833, "nom_usuel": "ST-BONNET CHAMPSAUR", "num_poste": "05132001", "commune": "SAINT-BONNET-EN-CHAMPSAUR", "ficheClimComplete": 0, "ficheClimReduite": 1, "alti": 1005, "url_metadata": "https://donneespubliques.meteofrance.fr/metadonnees_publiques/fiches/fiche_05132001.pdf" }, "geometry": { "type": "Point", "coordinates": [ 6.072833, 44.684167 ] } },
{ "type": "Feature", "properties": { "index": "109", "lat": 44.7045, "lon": 6.6, "nom_usuel": "ST CREPIN", "num_poste": "05136002", "commune": "SAINT-CREPIN", "ficheClimComplete": 0, "ficheClimReduite": 1, "alti": 906, "url_metadata": "https://donneespubliques.meteofrance.fr/metadonnees_publiques/fiches/fiche_05136002.pdf" }, "geometry": { "type": "Point", "coordinates": [ 6.6, 44.7045 ] } },
{ "type": "Feature", "properties": { "index": "110", "lat": 44.6945, "lon": 5.9405, "nom_usuel": "ST ETIENNE-EN-DEVOLUY", "num_poste": "05139002", "commune": "DEVOLUY", "ficheClimComplete": 0, "ficheClimReduite": 1, "alti": 1300, "url_metadata": "https://donneespubliques.meteofrance.fr/metadonnees_publiques/fiches/fiche_05139002.pdf" }, "geometry": { "type": "Point", "coordinates": [ 5.9405, 44.6945 ] } },
{ "type": "Feature", "properties": { "index": "111", "lat": 44.696167, "lon": 5.880833, "nom_usuel": "AGNIERES-EN-DEVOLUY", "num_poste": "05139006", "commune": "DEVOLUY", "ficheClimComplete": 0, "ficheClimReduite": 0, "alti": 1244, "url_metadata": "https://donneespubliques.meteofrance.fr/metadonnees_publiques/fiches/fiche_05139006.pdf" }, "geometry": { "type": "Point", "coordinates": [ 5.880833, 44.696167 ] } },
{ "type": "Feature", "properties": { "index": "112", "lat": 44.7825, "lon": 6.035, "nom_usuel": "ST FIRMIN", "num_poste": "05142001", "commune": "SAINT-FIRMIN", "ficheClimComplete": 0, "ficheClimReduite": 1, "alti": 935, "url_metadata": "https://donneespubliques.meteofrance.fr/metadonnees_publiques/fiches/fiche_05142001.pdf" }, "geometry": { "type": "Point", "coordinates": [ 6.035, 44.7825 ] } },
{ "type": "Feature", "properties": { "index": "113", "lat": 44.670833, "lon": 6.209833, "nom_usuel": "ST JEAN-ST-NICOLAS", "num_poste": "05145002", "commune": "SAINT-JEAN-SAINT-NICOLAS", "ficheClimComplete": 0, "ficheClimReduite": 1, "alti": 1210, "url_metadata": "https://donneespubliques.meteofrance.fr/metadonnees_publiques/fiches/fiche_05145002.pdf" }, "geometry": { "type": "Point", "coordinates": [ 6.209833, 44.670833 ] } },
{ "type": "Feature", "properties": { "index": "114", "lat": 44.699833, "lon": 6.869167, "nom_usuel": "ST VERAN", "num_poste": "05157001", "commune": "SAINT-VERAN", "ficheClimComplete": 0, "ficheClimReduite": 1, "alti": 2035, "url_metadata": "https://donneespubliques.meteofrance.fr/metadonnees_publiques/fiches/fiche_05157001.pdf" }, "geometry": { "type": "Point", "coordinates": [ 6.869167, 44.699833 ] } },
{ "type": "Feature", "properties": { "index": "115", "lat": 44.475833, "lon": 5.8155, "nom_usuel": "LE SAIX", "num_poste": "05158001", "commune": "LE SAIX", "ficheClimComplete": 0, "ficheClimReduite": 1, "alti": 801, "url_metadata": "https://donneespubliques.meteofrance.fr/metadonnees_publiques/fiches/fiche_05158001.pdf" }, "geometry": { "type": "Point", "coordinates": [ 5.8155, 44.475833 ] } },
{ "type": "Feature", "properties": { "index": "116", "lat": 44.452167, "lon": 6.033333, "nom_usuel": "TALLARD", "num_poste": "05170001", "commune": "TALLARD", "ficheClimComplete": 1, "ficheClimReduite": 1, "alti": 593, "url_metadata": "https://donneespubliques.meteofrance.fr/metadonnees_publiques/fiches/fiche_05170001.pdf" }, "geometry": { "type": "Point", "coordinates": [ 6.033333, 44.452167 ] } },
{ "type": "Feature", "properties": { "index": "117", "lat": 44.536333, "lon": 5.840667, "nom_usuel": "VEYNES", "num_poste": "05179001", "commune": "VEYNES", "ficheClimComplete": 0, "ficheClimReduite": 0, "alti": 823, "url_metadata": "https://donneespubliques.meteofrance.fr/metadonnees_publiques/fiches/fiche_05179001.pdf" }, "geometry": { "type": "Point", "coordinates": [ 5.840667, 44.536333 ] } },
{ "type": "Feature", "properties": { "index": "118", "lat": 45.030833, "lon": 6.361667, "nom_usuel": "VILLAR D'ARENE", "num_poste": "05181002", "commune": "VILLAR-D'ARENE", "ficheClimComplete": 0, "ficheClimReduite": 1, "alti": 1665, "url_metadata": "https://donneespubliques.meteofrance.fr/metadonnees_publiques/fiches/fiche_05181002.pdf" }, "geometry": { "type": "Point", "coordinates": [ 6.361667, 45.030833 ] } },
{ "type": "Feature", "properties": { "index": "119", "lat": 44.826833, "lon": 6.146, "nom_usuel": "VILLAR LOUBIERE", "num_poste": "05182001", "commune": "VILLAR-LOUBIERE", "ficheClimComplete": 0, "ficheClimReduite": 1, "alti": 1072, "url_metadata": "https://donneespubliques.meteofrance.fr/metadonnees_publiques/fiches/fiche_05182001.pdf" }, "geometry": { "type": "Point", "coordinates": [ 6.146, 44.826833 ] } },
{ "type": "Feature", "properties": { "index": "120", "lat": 44.880333, "lon": 6.640333, "nom_usuel": "VILLAR ST PANCRACE", "num_poste": "05183001", "commune": "VILLAR-SAINT-PANCRACE", "ficheClimComplete": 1, "ficheClimReduite": 1, "alti": 1310, "url_metadata": "https://donneespubliques.meteofrance.fr/metadonnees_publiques/fiches/fiche_05183001.pdf" }, "geometry": { "type": "Point", "coordinates": [ 6.640333, 44.880333 ] } },
{ "type": "Feature", "properties": { "index": "121", "lat": 43.564667, "lon": 7.133, "nom_usuel": "ANTIBES-GAROUPE", "num_poste": "06004002", "commune": "ANTIBES", "ficheClimComplete": 0, "ficheClimReduite": 0, "alti": 75, "url_metadata": "https://donneespubliques.meteofrance.fr/metadonnees_publiques/fiches/fiche_06004002.pdf" }, "geometry": { "type": "Point", "coordinates": [ 7.133, 43.564667 ] } },
{ "type": "Feature", "properties": { "index": "122", "lat": 43.579667, "lon": 7.091167, "nom_usuel": "ANTIBES-GOLF", "num_poste": "06004004", "commune": "ANTIBES", "ficheClimComplete": 0, "ficheClimReduite": 0, "alti": 13, "url_metadata": "https://donneespubliques.meteofrance.fr/metadonnees_publiques/fiches/fiche_06004004.pdf" }, "geometry": { "type": "Point", "coordinates": [ 7.091167, 43.579667 ] } },
{ "type": "Feature", "properties": { "index": "123", "lat": 43.599167, "lon": 7.111167, "nom_usuel": "ANTIBES_SAPC", "num_poste": "06004009", "commune": "ANTIBES", "ficheClimComplete": 0, "ficheClimReduite": 1, "alti": 32, "url_metadata": "https://donneespubliques.meteofrance.fr/metadonnees_publiques/fiches/fiche_06004009.pdf" }, "geometry": { "type": "Point", "coordinates": [ 7.111167, 43.599167 ] } },
{ "type": "Feature", "properties": { "index": "124", "lat": 43.922, "lon": 7.013667, "nom_usuel": "ASCROS", "num_poste": "06005001", "commune": "ASCROS", "ficheClimComplete": 0, "ficheClimReduite": 1, "alti": 1173, "url_metadata": "https://donneespubliques.meteofrance.fr/metadonnees_publiques/fiches/fiche_06005001.pdf" }, "geometry": { "type": "Point", "coordinates": [ 7.013667, 43.922 ] } },
{ "type": "Feature", "properties": { "index": "125", "lat": 44.089833, "lon": 6.988, "nom_usuel": "BEUIL-OBS", "num_poste": "06016001", "commune": "BEUIL", "ficheClimComplete": 0, "ficheClimReduite": 0, "alti": 1464, "url_metadata": "https://donneespubliques.meteofrance.fr/metadonnees_publiques/fiches/fiche_06016001.pdf" }, "geometry": { "type": "Point", "coordinates": [ 6.988, 44.089833 ] } },
{ "type": "Feature", "properties": { "index": "126", "lat": 43.940167, "lon": 7.513667, "nom_usuel": "BREIL SUR ROYA", "num_poste": "06023004", "commune": "BREIL-SUR-ROYA", "ficheClimComplete": 0, "ficheClimReduite": 0, "alti": 305, "url_metadata": "https://donneespubliques.meteofrance.fr/metadonnees_publiques/fiches/fiche_06023004.pdf" }, "geometry": { "type": "Point", "coordinates": [ 7.513667, 43.940167 ] } },
{ "type": "Feature", "properties": { "index": "127", "lat": 43.5565, "lon": 6.9505, "nom_usuel": "CANNES", "num_poste": "06029001", "commune": "MANDELIEU-LA-NAPOULE", "ficheClimComplete": 0, "ficheClimReduite": 1, "alti": 2, "url_metadata": "https://donneespubliques.meteofrance.fr/metadonnees_publiques/fiches/fiche_06029001.pdf" }, "geometry": { "type": "Point", "coordinates": [ 6.9505, 43.5565 ] } },
{ "type": "Feature", "properties": { "index": "128", "lat": 43.786667, "lon": 7.209167, "nom_usuel": "CARROS_SAPC", "num_poste": "06033002", "commune": "CARROS", "ficheClimComplete": 0, "ficheClimReduite": 0, "alti": 78, "url_metadata": "https://donneespubliques.meteofrance.fr/metadonnees_publiques/fiches/fiche_06033002.pdf" }, "geometry": { "type": "Point", "coordinates": [ 7.209167, 43.786667 ] } },
{ "type": "Feature", "properties": { "index": "129", "lat": 43.752333, "lon": 6.923167, "nom_usuel": "CAUSSOLS", "num_poste": "06037002", "commune": "CAUSSOLS", "ficheClimComplete": 0, "ficheClimReduite": 1, "alti": 1268, "url_metadata": "https://donneespubliques.meteofrance.fr/metadonnees_publiques/fiches/fiche_06037002.pdf" }, "geometry": { "type": "Point", "coordinates": [ 6.923167, 43.752333 ] } },
{ "type": "Feature", "properties": { "index": "130", "lat": 43.678333, "lon": 6.996167, "nom_usuel": "CHATEAUNEUF GRASSE", "num_poste": "06038001", "commune": "CHATEAUNEUF-GRASSE", "ficheClimComplete": 0, "ficheClimReduite": 0, "alti": 379, "url_metadata": "https://donneespubliques.meteofrance.fr/metadonnees_publiques/fiches/fiche_06038001.pdf" }, "geometry": { "type": "Point", "coordinates": [ 6.996167, 43.678333 ] } },
{ "type": "Feature", "properties": { "index": "131", "lat": 43.792, "lon": 7.0485, "nom_usuel": "COURSEGOULES_SAPC", "num_poste": "06050002", "commune": "COURSEGOULES", "ficheClimComplete": 0, "ficheClimReduite": 0, "alti": 985, "url_metadata": "https://donneespubliques.meteofrance.fr/metadonnees_publiques/fiches/fiche_06050002.pdf" }, "geometry": { "type": "Point", "coordinates": [ 7.0485, 43.792 ] } },
{ "type": "Feature", "properties": { "index": "132", "lat": 43.738833, "lon": 7.365833, "nom_usuel": "EZE", "num_poste": "06059003", "commune": "EZE", "ficheClimComplete": 0, "ficheClimReduite": 0, "alti": 704, "url_metadata": "https://donneespubliques.meteofrance.fr/metadonnees_publiques/fiches/fiche_06059003.pdf" }, "geometry": { "type": "Point", "coordinates": [ 7.365833, 43.738833 ] } },
{ "type": "Feature", "properties": { "index": "133", "lat": 44.090667, "lon": 6.852333, "nom_usuel": "GUILLAUMES-OBS", "num_poste": "06071001", "commune": "GUILLAUMES", "ficheClimComplete": 0, "ficheClimReduite": 0, "alti": 788, "url_metadata": "https://donneespubliques.meteofrance.fr/metadonnees_publiques/fiches/fiche_06071001.pdf" }, "geometry": { "type": "Point", "coordinates": [ 6.852333, 44.090667 ] } },
{ "type": "Feature", "properties": { "index": "134", "lat": 44.1895, "lon": 7.149, "nom_usuel": "ISOLA 2000", "num_poste": "06073005", "commune": "ISOLA", "ficheClimComplete": 0, "ficheClimReduite": 1, "alti": 1912, "url_metadata": "https://donneespubliques.meteofrance.fr/metadonnees_publiques/fiches/fiche_06073005.pdf" }, "geometry": { "type": "Point", "coordinates": [ 7.149, 44.1895 ] } },
{ "type": "Feature", "properties": { "index": "135", "lat": 43.972, "lon": 7.307, "nom_usuel": "LANTOSQUE_SAPC", "num_poste": "06074005", "commune": "LANTOSQUE", "ficheClimComplete": 0, "ficheClimReduite": 1, "alti": 550, "url_metadata": "https://donneespubliques.meteofrance.fr/metadonnees_publiques/fiches/fiche_06074005.pdf" }, "geometry": { "type": "Point", "coordinates": [ 7.307, 43.972 ] } },
{ "type": "Feature", "properties": { "index": "136", "lat": 43.846333, "lon": 7.21, "nom_usuel": "LEVENS", "num_poste": "06075007", "commune": "LEVENS", "ficheClimComplete": 1, "ficheClimReduite": 1, "alti": 691, "url_metadata": "https://donneespubliques.meteofrance.fr/metadonnees_publiques/fiches/fiche_06075007.pdf" }, "geometry": { "type": "Point", "coordinates": [ 7.21, 43.846333 ] } },
{ "type": "Feature", "properties": { "index": "137", "lat": 43.929167, "lon": 7.363333, "nom_usuel": "PEIRA CAVA", "num_poste": "06077006", "commune": "LUCERAM", "ficheClimComplete": 0, "ficheClimReduite": 1, "alti": 1443, "url_metadata": "https://donneespubliques.meteofrance.fr/metadonnees_publiques/fiches/fiche_06077006.pdf" }, "geometry": { "type": "Point", "coordinates": [ 7.363333, 43.929167 ] } },
{ "type": "Feature", "properties": { "index": "138", "lat": 43.523667, "lon": 6.898667, "nom_usuel": "MANDELIEU LA NAPOULE_SAPC", "num_poste": "06079002", "commune": "MANDELIEU-LA-NAPOULE", "ficheClimComplete": 0, "ficheClimReduite": 1, "alti": 104, "url_metadata": "https://donneespubliques.meteofrance.fr/metadonnees_publiques/fiches/fiche_06079002.pdf" }, "geometry": { "type": "Point", "coordinates": [ 6.898667, 43.523667 ] } },
{ "type": "Feature", "properties": { "index": "139", "lat": 43.813667, "lon": 6.809333, "nom_usuel": "LE MAS", "num_poste": "06081001", "commune": "LE MAS", "ficheClimComplete": 0, "ficheClimReduite": 1, "alti": 1525, "url_metadata": "https://donneespubliques.meteofrance.fr/metadonnees_publiques/fiches/fiche_06081001.pdf" }, "geometry": { "type": "Point", "coordinates": [ 6.809333, 43.813667 ] } },
{ "type": "Feature", "properties": { "index": "140", "lat": 43.785833, "lon": 7.488667, "nom_usuel": "MENTON", "num_poste": "06083005", "commune": "MENTON", "ficheClimComplete": 0, "ficheClimReduite": 0, "alti": 216, "url_metadata": "https://donneespubliques.meteofrance.fr/metadonnees_publiques/fiches/fiche_06083005.pdf" }, "geometry": { "type": "Point", "coordinates": [ 7.488667, 43.785833 ] } },
{ "type": "Feature", "properties": { "index": "141", "lat": 43.942, "lon": 7.414667, "nom_usuel": "MOULINET", "num_poste": "06086001", "commune": "MOULINET", "ficheClimComplete": 0, "ficheClimReduite": 0, "alti": 817, "url_metadata": "https://donneespubliques.meteofrance.fr/metadonnees_publiques/fiches/fiche_06086001.pdf" }, "geometry": { "type": "Point", "coordinates": [ 7.414667, 43.942 ] } },
{ "type": "Feature", "properties": { "index": "142", "lat": 43.648833, "lon": 7.209, "nom_usuel": "NICE", "num_poste": "06088001", "commune": "NICE", "ficheClimComplete": 1, "ficheClimReduite": 1, "alti": 2, "url_metadata": "https://donneespubliques.meteofrance.fr/metadonnees_publiques/fiches/fiche_06088001.pdf" }, "geometry": { "type": "Point", "coordinates": [ 7.209, 43.648833 ] } },
{ "type": "Feature", "properties": { "index": "143", "lat": 43.738667, "lon": 7.279167, "nom_usuel": "NICE-RIMIEZ", "num_poste": "06088007", "commune": "NICE", "ficheClimComplete": 1, "ficheClimReduite": 1, "alti": 238, "url_metadata": "https://donneespubliques.meteofrance.fr/metadonnees_publiques/fiches/fiche_06088007.pdf" }, "geometry": { "type": "Point", "coordinates": [ 7.279167, 43.738667 ] } },
{ "type": "Feature", "properties": { "index": "144", "lat": 43.602667, "lon": 6.936667, "nom_usuel": "PEGOMAS", "num_poste": "06090002", "commune": "PEGOMAS", "ficheClimComplete": 1, "ficheClimReduite": 1, "alti": 109, "url_metadata": "https://donneespubliques.meteofrance.fr/metadonnees_publiques/fiches/fiche_06090002.pdf" }, "geometry": { "type": "Point", "coordinates": [ 6.936667, 43.602667 ] } },
{ "type": "Feature", "properties": { "index": "145", "lat": 43.775167, "lon": 7.428333, "nom_usuel": "PEILLE", "num_poste": "06091003", "commune": "PEILLE", "ficheClimComplete": 0, "ficheClimReduite": 1, "alti": 1106, "url_metadata": "https://donneespubliques.meteofrance.fr/metadonnees_publiques/fiches/fiche_06091003.pdf" }, "geometry": { "type": "Point", "coordinates": [ 7.428333, 43.775167 ] } },
{ "type": "Feature", "properties": { "index": "146", "lat": 44.099667, "lon": 6.930833, "nom_usuel": "PEONE", "num_poste": "06094002", "commune": "PEONE", "ficheClimComplete": 0, "ficheClimReduite": 1, "alti": 1784, "url_metadata": "https://donneespubliques.meteofrance.fr/metadonnees_publiques/fiches/fiche_06094002.pdf" }, "geometry": { "type": "Point", "coordinates": [ 6.930833, 44.099667 ] } },
{ "type": "Feature", "properties": { "index": "147", "lat": 43.956833, "lon": 6.892333, "nom_usuel": "PUGET THENIERS_SAPC", "num_poste": "06099004", "commune": "PUGET-THENIERS", "ficheClimComplete": 0, "ficheClimReduite": 0, "alti": 449, "url_metadata": "https://donneespubliques.meteofrance.fr/metadonnees_publiques/fiches/fiche_06099004.pdf" }, "geometry": { "type": "Point", "coordinates": [ 6.892333, 43.956833 ] } },
{ "type": "Feature", "properties": { "index": "148", "lat": 44.067167, "lon": 7.1335, "nom_usuel": "RIMPLAS_SAPC", "num_poste": "06102001", "commune": "RIMPLAS", "ficheClimComplete": 0, "ficheClimReduite": 1, "alti": 1130, "url_metadata": "https://donneespubliques.meteofrance.fr/metadonnees_publiques/fiches/fiche_06102001.pdf" }, "geometry": { "type": "Point", "coordinates": [ 7.1335, 44.067167 ] } },
{ "type": "Feature", "properties": { "index": "149", "lat": 44.044333, "lon": 7.300833, "nom_usuel": "BERTHEMONT-LES-BAINS_SAPC", "num_poste": "06103002", "commune": "ROQUEBILLIERE", "ficheClimComplete": 0, "ficheClimReduite": 0, "alti": 938, "url_metadata": "https://donneespubliques.meteofrance.fr/metadonnees_publiques/fiches/fiche_06103002.pdf" }, "geometry": { "type": "Point", "coordinates": [ 7.300833, 44.044333 ] } },
{ "type": "Feature", "properties": { "index": "150", "lat": 43.678667, "lon": 6.809, "nom_usuel": "ST CEZAIRE SUR SIAGNE", "num_poste": "06118002", "commune": "SAINT-CEZAIRE-SUR-SIAGNE", "ficheClimComplete": 1, "ficheClimReduite": 1, "alti": 694, "url_metadata": "https://donneespubliques.meteofrance.fr/metadonnees_publiques/fiches/fiche_06118002.pdf" }, "geometry": { "type": "Point", "coordinates": [ 6.809, 43.678667 ] } },
{ "type": "Feature", "properties": { "index": "151", "lat": 44.257667, "lon": 6.921167, "nom_usuel": "ST ETIENNE DE TINEE_SAPC", "num_poste": "06120004", "commune": "SAINT-ETIENNE-DE-TINEE", "ficheClimComplete": 0, "ficheClimReduite": 1, "alti": 1150, "url_metadata": "https://donneespubliques.meteofrance.fr/metadonnees_publiques/fiches/fiche_06120004.pdf" }, "geometry": { "type": "Point", "coordinates": [ 6.921167, 44.257667 ] } },
{ "type": "Feature", "properties": { "index": "152", "lat": 44.154667, "lon": 6.747, "nom_usuel": "ST MARTIN D'ENTRAUNES_SAPC", "num_poste": "06125001", "commune": "SAINT-MARTIN-D'ENTRAUNES", "ficheClimComplete": 0, "ficheClimReduite": 1, "alti": 1642, "url_metadata": "https://donneespubliques.meteofrance.fr/metadonnees_publiques/fiches/fiche_06125001.pdf" }, "geometry": { "type": "Point", "coordinates": [ 6.747, 44.154667 ] } },
{ "type": "Feature", "properties": { "index": "153", "lat": 44.074167, "lon": 7.254167, "nom_usuel": "ST-MARTIN-DE-VESUBIE-OBS", "num_poste": "06127001", "commune": "SAINT-MARTIN-VESUBIE", "ficheClimComplete": 0, "ficheClimReduite": 1, "alti": 994, "url_metadata": "https://donneespubliques.meteofrance.fr/metadonnees_publiques/fiches/fiche_06127001.pdf" }, "geometry": { "type": "Point", "coordinates": [ 7.254167, 44.074167 ] } },
{ "type": "Feature", "properties": { "index": "154", "lat": 43.862833, "lon": 7.433667, "nom_usuel": "SOSPEL", "num_poste": "06136005", "commune": "SOSPEL", "ficheClimComplete": 0, "ficheClimReduite": 1, "alti": 843, "url_metadata": "https://donneespubliques.meteofrance.fr/metadonnees_publiques/fiches/fiche_06136005.pdf" }, "geometry": { "type": "Point", "coordinates": [ 7.433667, 43.862833 ] } },
{ "type": "Feature", "properties": { "index": "155", "lat": 43.623167, "lon": 7.0285, "nom_usuel": "VALBONNE-SOPHIA", "num_poste": "06152002", "commune": "VALBONNE", "ficheClimComplete": 1, "ficheClimReduite": 1, "alti": 238, "url_metadata": "https://donneespubliques.meteofrance.fr/metadonnees_publiques/fiches/fiche_06152002.pdf" }, "geometry": { "type": "Point", "coordinates": [ 7.0285, 43.623167 ] } },
{ "type": "Feature", "properties": { "index": "156", "lat": 44.118333, "lon": 7.192, "nom_usuel": "MILLEFONTS-NIVOSE", "num_poste": "06153400", "commune": "VALDEBLORE", "ficheClimComplete": 0, "ficheClimReduite": 0, "alti": 2430, "url_metadata": "https://donneespubliques.meteofrance.fr/metadonnees_publiques/fiches/fiche_06153400.pdf" }, "geometry": { "type": "Point", "coordinates": [ 7.192, 44.118333 ] } },
{ "type": "Feature", "properties": { "index": "157", "lat": 44.086667, "lon": 7.595, "nom_usuel": "TENDE-OBS", "num_poste": "06163001", "commune": "TENDE", "ficheClimComplete": 0, "ficheClimReduite": 0, "alti": 792, "url_metadata": "https://donneespubliques.meteofrance.fr/metadonnees_publiques/fiches/fiche_06163001.pdf" }, "geometry": { "type": "Point", "coordinates": [ 7.595, 44.086667 ] } },
{ "type": "Feature", "properties": { "index": "158", "lat": 44.043167, "lon": 7.586, "nom_usuel": "TENDE_SAPC", "num_poste": "06163007", "commune": "TENDE", "ficheClimComplete": 0, "ficheClimReduite": 1, "alti": 636, "url_metadata": "https://donneespubliques.meteofrance.fr/metadonnees_publiques/fiches/fiche_06163007.pdf" }, "geometry": { "type": "Point", "coordinates": [ 7.586, 44.043167 ] } },
{ "type": "Feature", "properties": { "index": "159", "lat": 44.539833, "lon": 4.5825, "nom_usuel": "ALBA LA ROMAINE", "num_poste": "07005001", "commune": "ALBA-LA-ROMAINE", "ficheClimComplete": 0, "ficheClimReduite": 1, "alti": 223, "url_metadata": "https://donneespubliques.meteofrance.fr/metadonnees_publiques/fiches/fiche_07005001.pdf" }, "geometry": { "type": "Point", "coordinates": [ 4.5825, 44.539833 ] } },
{ "type": "Feature", "properties": { "index": "160", "lat": 45.246167, "lon": 4.6705, "nom_usuel": "ANNONAY", "num_poste": "07010001", "commune": "ANNONAY", "ficheClimComplete": 0, "ficheClimReduite": 1, "alti": 336, "url_metadata": "https://donneespubliques.meteofrance.fr/metadonnees_publiques/fiches/fiche_07010001.pdf" }, "geometry": { "type": "Point", "coordinates": [ 4.6705, 45.246167 ] } },
{ "type": "Feature", "properties": { "index": "161", "lat": 44.719167, "lon": 4.352167, "nom_usuel": "ANTRAIGUES", "num_poste": "07011002", "commune": "VALLEES-D'ANTRAIGUES-ASPERJOC", "ficheClimComplete": 0, "ficheClimReduite": 0, "alti": 428, "url_metadata": "https://donneespubliques.meteofrance.fr/metadonnees_publiques/fiches/fiche_07011002.pdf" }, "geometry": { "type": "Point", "coordinates": [ 4.352167, 44.719167 ] } },
{ "type": "Feature", "properties": { "index": "162", "lat": 44.712167, "lon": 4.352167, "nom_usuel": "ANTRAIGUES SA", "num_poste": "07011004", "commune": "VALLEES-D'ANTRAIGUES-ASPERJOC", "ficheClimComplete": 0, "ficheClimReduite": 1, "alti": 600, "url_metadata": "https://donneespubliques.meteofrance.fr/metadonnees_publiques/fiches/fiche_07011004.pdf" }, "geometry": { "type": "Point", "coordinates": [ 4.352167, 44.712167 ] } },
{ "type": "Feature", "properties": { "index": "163", "lat": 44.601667, "lon": 4.409833, "nom_usuel": "AUBENAS SA", "num_poste": "07019005", "commune": "AUBENAS", "ficheClimComplete": 0, "ficheClimReduite": 1, "alti": 176, "url_metadata": "https://donneespubliques.meteofrance.fr/metadonnees_publiques/fiches/fiche_07019005.pdf" }, "geometry": { "type": "Point", "coordinates": [ 4.409833, 44.601667 ] } },
{ "type": "Feature", "properties": { "index": "164", "lat": 44.666, "lon": 4.159833, "nom_usuel": "BARNAS RAD", "num_poste": "07025001", "commune": "BARNAS", "ficheClimComplete": 0, "ficheClimReduite": 1, "alti": 480, "url_metadata": "https://donneespubliques.meteofrance.fr/metadonnees_publiques/fiches/fiche_07025001.pdf" }, "geometry": { "type": "Point", "coordinates": [ 4.159833, 44.666 ] } },
{ "type": "Feature", "properties": { "index": "165", "lat": 44.628333, "lon": 4.566333, "nom_usuel": "BERZEME RAD", "num_poste": "07032002", "commune": "BERZEME", "ficheClimComplete": 0, "ficheClimReduite": 1, "alti": 650, "url_metadata": "https://donneespubliques.meteofrance.fr/metadonnees_publiques/fiches/fiche_07032002.pdf" }, "geometry": { "type": "Point", "coordinates": [ 4.566333, 44.628333 ] } },
{ "type": "Feature", "properties": { "index": "166", "lat": 44.34, "lon": 4.298667, "nom_usuel": "BESSAS", "num_poste": "07033001", "commune": "BESSAS", "ficheClimComplete": 0, "ficheClimReduite": 0, "alti": 251, "url_metadata": "https://donneespubliques.meteofrance.fr/metadonnees_publiques/fiches/fiche_07033001.pdf" }, "geometry": { "type": "Point", "coordinates": [ 4.298667, 44.34 ] } },
{ "type": "Feature", "properties": { "index": "167", "lat": 44.914833, "lon": 4.4375, "nom_usuel": "CHEYLARD SA", "num_poste": "07064001", "commune": "LE CHEYLARD", "ficheClimComplete": 0, "ficheClimReduite": 1, "alti": 418, "url_metadata": "https://donneespubliques.meteofrance.fr/metadonnees_publiques/fiches/fiche_07064001.pdf" }, "geometry": { "type": "Point", "coordinates": [ 4.4375, 44.914833 ] } },
{ "type": "Feature", "properties": { "index": "168", "lat": 44.6995, "lon": 4.648333, "nom_usuel": "CHOMERAC SA_RCE", "num_poste": "07066001", "commune": "ALISSAS", "ficheClimComplete": 0, "ficheClimReduite": 1, "alti": 216, "url_metadata": "https://donneespubliques.meteofrance.fr/metadonnees_publiques/fiches/fiche_07066001.pdf" }, "geometry": { "type": "Point", "coordinates": [ 4.648333, 44.6995 ] } },
{ "type": "Feature", "properties": { "index": "169", "lat": 45.0155, "lon": 4.671167, "nom_usuel": "COLOMBIER JEUNE RAD", "num_poste": "07068001", "commune": "COLOMBIER-LE-JEUNE", "ficheClimComplete": 0, "ficheClimReduite": 1, "alti": 566, "url_metadata": "https://donneespubliques.meteofrance.fr/metadonnees_publiques/fiches/fiche_07068001.pdf" }, "geometry": { "type": "Point", "coordinates": [ 4.671167, 45.0155 ] } },
{ "type": "Feature", "properties": { "index": "170", "lat": 45.063667, "lon": 4.698, "nom_usuel": "COLOMBIER VIEUX SA", "num_poste": "07069001", "commune": "COLOMBIER-LE-VIEUX", "ficheClimComplete": 0, "ficheClimReduite": 1, "alti": 408, "url_metadata": "https://donneespubliques.meteofrance.fr/metadonnees_publiques/fiches/fiche_07069001.pdf" }, "geometry": { "type": "Point", "coordinates": [ 4.698, 45.063667 ] } },
{ "type": "Feature", "properties": { "index": "171", "lat": 44.780167, "lon": 4.099667, "nom_usuel": "CROS GEORAND", "num_poste": "07075001", "commune": "CROS-DE-GEORAND", "ficheClimComplete": 0, "ficheClimReduite": 1, "alti": 1021, "url_metadata": "https://donneespubliques.meteofrance.fr/metadonnees_publiques/fiches/fiche_07075001.pdf" }, "geometry": { "type": "Point", "coordinates": [ 4.099667, 44.780167 ] } },
{ "type": "Feature", "properties": { "index": "172", "lat": 44.839333, "lon": 4.524, "nom_usuel": "GLUIRAS RAD", "num_poste": "07096001", "commune": "GLUIRAS", "ficheClimComplete": 1, "ficheClimReduite": 1, "alti": 760, "url_metadata": "https://donneespubliques.meteofrance.fr/metadonnees_publiques/fiches/fiche_07096001.pdf" }, "geometry": { "type": "Point", "coordinates": [ 4.524, 44.839333 ] } },
{ "type": "Feature", "properties": { "index": "173", "lat": 44.429, "lon": 4.5655, "nom_usuel": "GRAS", "num_poste": "07099001", "commune": "GRAS", "ficheClimComplete": 0, "ficheClimReduite": 0, "alti": 341, "url_metadata": "https://donneespubliques.meteofrance.fr/metadonnees_publiques/fiches/fiche_07099001.pdf" }, "geometry": { "type": "Point", "coordinates": [ 4.5655, 44.429 ] } },
{ "type": "Feature", "properties": { "index": "174", "lat": 44.411333, "lon": 4.300833, "nom_usuel": "GROSPIERRES", "num_poste": "07101001", "commune": "GROSPIERRES", "ficheClimComplete": 0, "ficheClimReduite": 1, "alti": 127, "url_metadata": "https://donneespubliques.meteofrance.fr/metadonnees_publiques/fiches/fiche_07101001.pdf" }, "geometry": { "type": "Point", "coordinates": [ 4.300833, 44.411333 ] } },
{ "type": "Feature", "properties": { "index": "175", "lat": 44.4115, "lon": 4.295833, "nom_usuel": "GROSPIERRES SA", "num_poste": "07101002", "commune": "GROSPIERRES", "ficheClimComplete": 0, "ficheClimReduite": 1, "alti": 107, "url_metadata": "https://donneespubliques.meteofrance.fr/metadonnees_publiques/fiches/fiche_07101002.pdf" }, "geometry": { "type": "Point", "coordinates": [ 4.295833, 44.4115 ] } },
{ "type": "Feature", "properties": { "index": "176", "lat": 44.773167, "lon": 3.981667, "nom_usuel": "ISSANLAS", "num_poste": "07105001", "commune": "ISSANLAS", "ficheClimComplete": 0, "ficheClimReduite": 0, "alti": 1215, "url_metadata": "https://donneespubliques.meteofrance.fr/metadonnees_publiques/fiches/fiche_07105001.pdf" }, "geometry": { "type": "Point", "coordinates": [ 3.981667, 44.773167 ] } },
{ "type": "Feature", "properties": { "index": "177", "lat": 44.7555, "lon": 3.975333, "nom_usuel": "ISSANLAS_SAPC", "num_poste": "07105003", "commune": "ISSANLAS", "ficheClimComplete": 0, "ficheClimReduite": 1, "alti": 1264, "url_metadata": "https://donneespubliques.meteofrance.fr/metadonnees_publiques/fiches/fiche_07105003.pdf" }, "geometry": { "type": "Point", "coordinates": [ 3.975333, 44.7555 ] } },
{ "type": "Feature", "properties": { "index": "178", "lat": 44.461333, "lon": 4.234833, "nom_usuel": "LABLACHERE DROME", "num_poste": "07117001", "commune": "LABLACHERE", "ficheClimComplete": 0, "ficheClimReduite": 1, "alti": 265, "url_metadata": "https://donneespubliques.meteofrance.fr/metadonnees_publiques/fiches/fiche_07117001.pdf" }, "geometry": { "type": "Point", "coordinates": [ 4.234833, 44.461333 ] } },
{ "type": "Feature", "properties": { "index": "179", "lat": 44.480833, "lon": 4.208333, "nom_usuel": "LABLACHERE", "num_poste": "07117002", "commune": "LABLACHERE", "ficheClimComplete": 0, "ficheClimReduite": 1, "alti": 295, "url_metadata": "https://donneespubliques.meteofrance.fr/metadonnees_publiques/fiches/fiche_07117002.pdf" }, "geometry": { "type": "Point", "coordinates": [ 4.208333, 44.480833 ] } },
{ "type": "Feature", "properties": { "index": "180", "lat": 45.117833, "lon": 4.535, "nom_usuel": "LALOUVESC", "num_poste": "07128001", "commune": "LALOUVESC", "ficheClimComplete": 0, "ficheClimReduite": 1, "alti": 1090, "url_metadata": "https://donneespubliques.meteofrance.fr/metadonnees_publiques/fiches/fiche_07128001.pdf" }, "geometry": { "type": "Point", "coordinates": [ 4.535, 45.117833 ] } },
{ "type": "Feature", "properties": { "index": "181", "lat": 44.537167, "lon": 4.368167, "nom_usuel": "LANAS SYN", "num_poste": "07131001", "commune": "LANAS", "ficheClimComplete": 0, "ficheClimReduite": 1, "alti": 265, "url_metadata": "https://donneespubliques.meteofrance.fr/metadonnees_publiques/fiches/fiche_07131001.pdf" }, "geometry": { "type": "Point", "coordinates": [ 4.368167, 44.537167 ] } },
{ "type": "Feature", "properties": { "index": "182", "lat": 44.599833, "lon": 4.049333, "nom_usuel": "LOUBARESSE", "num_poste": "07144001", "commune": "LOUBARESSE", "ficheClimComplete": 0, "ficheClimReduite": 1, "alti": 1220, "url_metadata": "https://donneespubliques.meteofrance.fr/metadonnees_publiques/fiches/fiche_07144001.pdf" }, "geometry": { "type": "Point", "coordinates": [ 4.049333, 44.599833 ] } },
{ "type": "Feature", "properties": { "index": "183", "lat": 44.667167, "lon": 4.113, "nom_usuel": "MAYRES", "num_poste": "07153001", "commune": "MAYRES", "ficheClimComplete": 0, "ficheClimReduite": 0, "alti": 579, "url_metadata": "https://donneespubliques.meteofrance.fr/metadonnees_publiques/fiches/fiche_07153001.pdf" }, "geometry": { "type": "Point", "coordinates": [ 4.113, 44.667167 ] } },
{ "type": "Feature", "properties": { "index": "184", "lat": 44.733833, "lon": 4.083833, "nom_usuel": "MAZAN ABBAYE RAD", "num_poste": "07154005", "commune": "MAZAN-L'ABBAYE", "ficheClimComplete": 0, "ficheClimReduite": 1, "alti": 1240, "url_metadata": "https://donneespubliques.meteofrance.fr/metadonnees_publiques/fiches/fiche_07154005.pdf" }, "geometry": { "type": "Point", "coordinates": [ 4.083833, 44.733833 ] } },
{ "type": "Feature", "properties": { "index": "185", "lat": 44.5815, "lon": 4.497333, "nom_usuel": "MIRABEL SA", "num_poste": "07159001", "commune": "MIRABEL", "ficheClimComplete": 0, "ficheClimReduite": 1, "alti": 275, "url_metadata": "https://donneespubliques.meteofrance.fr/metadonnees_publiques/fiches/fiche_07159001.pdf" }, "geometry": { "type": "Point", "coordinates": [ 4.497333, 44.5815 ] } },
{ "type": "Feature", "properties": { "index": "186", "lat": 44.715667, "lon": 4.207, "nom_usuel": "MONTPEZAT SA", "num_poste": "07161001", "commune": "MONTPEZAT-SOUS-BAUZON", "ficheClimComplete": 0, "ficheClimReduite": 1, "alti": 602, "url_metadata": "https://donneespubliques.meteofrance.fr/metadonnees_publiques/fiches/fiche_07161001.pdf" }, "geometry": { "type": "Point", "coordinates": [ 4.207, 44.715667 ] } },
{ "type": "Feature", "properties": { "index": "187", "lat": 44.288333, "lon": 4.421667, "nom_usuel": "ORGNAC AVEN", "num_poste": "07168001", "commune": "ORGNAC-L'AVEN", "ficheClimComplete": 0, "ficheClimReduite": 1, "alti": 230, "url_metadata": "https://donneespubliques.meteofrance.fr/metadonnees_publiques/fiches/fiche_07168001.pdf" }, "geometry": { "type": "Point", "coordinates": [ 4.421667, 44.288333 ] } },
{ "type": "Feature", "properties": { "index": "188", "lat": 45.286167, "lon": 4.705833, "nom_usuel": "PEAUGRES RAD", "num_poste": "07172002", "commune": "PEAUGRES", "ficheClimComplete": 0, "ficheClimReduite": 1, "alti": 480, "url_metadata": "https://donneespubliques.meteofrance.fr/metadonnees_publiques/fiches/fiche_07172002.pdf" }, "geometry": { "type": "Point", "coordinates": [ 4.705833, 45.286167 ] } },
{ "type": "Feature", "properties": { "index": "189", "lat": 45.14, "lon": 4.665, "nom_usuel": "PREAUX SA", "num_poste": "07185001", "commune": "PREAUX", "ficheClimComplete": 0, "ficheClimReduite": 1, "alti": 525, "url_metadata": "https://donneespubliques.meteofrance.fr/metadonnees_publiques/fiches/fiche_07185001.pdf" }, "geometry": { "type": "Point", "coordinates": [ 4.665, 45.14 ] } },
{ "type": "Feature", "properties": { "index": "190", "lat": 44.606333, "lon": 4.241333, "nom_usuel": "CROIX MILLET", "num_poste": "07187001", "commune": "PRUNET", "ficheClimComplete": 0, "ficheClimReduite": 1, "alti": 779, "url_metadata": "https://donneespubliques.meteofrance.fr/metadonnees_publiques/fiches/fiche_07187001.pdf" }, "geometry": { "type": "Point", "coordinates": [ 4.241333, 44.606333 ] } },
{ "type": "Feature", "properties": { "index": "191", "lat": 44.533, "lon": 4.0725, "nom_usuel": "SABLIERES OARA", "num_poste": "07202002", "commune": "SABLIERES", "ficheClimComplete": 0, "ficheClimReduite": 1, "alti": 540, "url_metadata": "https://donneespubliques.meteofrance.fr/metadonnees_publiques/fiches/fiche_07202002.pdf" }, "geometry": { "type": "Point", "coordinates": [ 4.0725, 44.533 ] } },
{ "type": "Feature", "properties": { "index": "192", "lat": 44.997833, "lon": 4.368, "nom_usuel": "ST-AGREVE RAD", "num_poste": "07204008", "commune": "SAINT-AGREVE", "ficheClimComplete": 0, "ficheClimReduite": 1, "alti": 1014, "url_metadata": "https://donneespubliques.meteofrance.fr/metadonnees_publiques/fiches/fiche_07204008.pdf" }, "geometry": { "type": "Point", "coordinates": [ 4.368, 44.997833 ] } },
{ "type": "Feature", "properties": { "index": "193", "lat": 45.260333, "lon": 4.783667, "nom_usuel": "ST-DESIRAT SA", "num_poste": "07228001", "commune": "SAINT-DESIRAT", "ficheClimComplete": 0, "ficheClimReduite": 1, "alti": 275, "url_metadata": "https://donneespubliques.meteofrance.fr/metadonnees_publiques/fiches/fiche_07228001.pdf" }, "geometry": { "type": "Point", "coordinates": [ 4.783667, 45.260333 ] } },
{ "type": "Feature", "properties": { "index": "194", "lat": 44.651333, "lon": 3.9485, "nom_usuel": "ST-ETIENNE LUGDARES", "num_poste": "07232001", "commune": "SAINT-ETIENNE-DE-LUGDARES", "ficheClimComplete": 0, "ficheClimReduite": 1, "alti": 1022, "url_metadata": "https://donneespubliques.meteofrance.fr/metadonnees_publiques/fiches/fiche_07232001.pdf" }, "geometry": { "type": "Point", "coordinates": [ 3.9485, 44.651333 ] } },
{ "type": "Feature", "properties": { "index": "195", "lat": 44.860333, "lon": 4.8325, "nom_usuel": "ST-GEORGES BAIN", "num_poste": "07240001", "commune": "SAINT-GEORGES-LES-BAINS", "ficheClimComplete": 0, "ficheClimReduite": 0, "alti": 112, "url_metadata": "https://donneespubliques.meteofrance.fr/metadonnees_publiques/fiches/fiche_07240001.pdf" }, "geometry": { "type": "Point", "coordinates": [ 4.8325, 44.860333 ] } },
{ "type": "Feature", "properties": { "index": "196", "lat": 44.817833, "lon": 4.746833, "nom_usuel": "ST-LAURENT PAPE", "num_poste": "07261001", "commune": "SAINT-LAURENT-DU-PAPE", "ficheClimComplete": 0, "ficheClimReduite": 1, "alti": 112, "url_metadata": "https://donneespubliques.meteofrance.fr/metadonnees_publiques/fiches/fiche_07261001.pdf" }, "geometry": { "type": "Point", "coordinates": [ 4.746833, 44.817833 ] } },
{ "type": "Feature", "properties": { "index": "197", "lat": 45.296, "lon": 4.642, "nom_usuel": "ST-MARCEL ANNONAY", "num_poste": "07265001", "commune": "SAINT-MARCEL-LES-ANNONAY", "ficheClimComplete": 0, "ficheClimReduite": 1, "alti": 494, "url_metadata": "https://donneespubliques.meteofrance.fr/metadonnees_publiques/fiches/fiche_07265001.pdf" }, "geometry": { "type": "Point", "coordinates": [ 4.642, 45.296 ] } },
{ "type": "Feature", "properties": { "index": "198", "lat": 44.441833, "lon": 4.636333, "nom_usuel": "ST-MONTAN", "num_poste": "07279001", "commune": "SAINT-MONTAN", "ficheClimComplete": 0, "ficheClimReduite": 0, "alti": 130, "url_metadata": "https://donneespubliques.meteofrance.fr/metadonnees_publiques/fiches/fiche_07279001.pdf" }, "geometry": { "type": "Point", "coordinates": [ 4.636333, 44.441833 ] } },
{ "type": "Feature", "properties": { "index": "199", "lat": 44.814333, "lon": 4.485, "nom_usuel": "ST-PIERREVILLE", "num_poste": "07286002", "commune": "SAINT-PIERREVILLE", "ficheClimComplete": 0, "ficheClimReduite": 1, "alti": 560, "url_metadata": "https://donneespubliques.meteofrance.fr/metadonnees_publiques/fiches/fiche_07286002.pdf" }, "geometry": { "type": "Point", "coordinates": [ 4.485, 44.814333 ] } },
{ "type": "Feature", "properties": { "index": "200", "lat": 44.296, "lon": 4.26, "nom_usuel": "ST-SAUVEUR SA", "num_poste": "07294001", "commune": "SAINT-SAUVEUR-DE-CRUZIERES", "ficheClimComplete": 0, "ficheClimReduite": 1, "alti": 149, "url_metadata": "https://donneespubliques.meteofrance.fr/metadonnees_publiques/fiches/fiche_07294001.pdf" }, "geometry": { "type": "Point", "coordinates": [ 4.26, 44.296 ] } },
{ "type": "Feature", "properties": { "index": "201", "lat": 45.110167, "lon": 4.682333, "nom_usuel": "ST-VICTOR", "num_poste": "07301002", "commune": "SAINT-VICTOR", "ficheClimComplete": 0, "ficheClimReduite": 0, "alti": 557, "url_metadata": "https://donneespubliques.meteofrance.fr/metadonnees_publiques/fiches/fiche_07301002.pdf" }, "geometry": { "type": "Point", "coordinates": [ 4.682333, 45.110167 ] } },
{ "type": "Feature", "properties": { "index": "202", "lat": 44.6285, "lon": 4.123667, "nom_usuel": "LA SOUCHE", "num_poste": "07315004", "commune": "LA SOUCHE", "ficheClimComplete": 0, "ficheClimReduite": 0, "alti": 924, "url_metadata": "https://donneespubliques.meteofrance.fr/metadonnees_publiques/fiches/fiche_07315004.pdf" }, "geometry": { "type": "Point", "coordinates": [ 4.123667, 44.6285 ] } },
{ "type": "Feature", "properties": { "index": "203", "lat": 44.391833, "lon": 4.403667, "nom_usuel": "VALLON SA", "num_poste": "07330004", "commune": "VALLON-PONT-D'ARC", "ficheClimComplete": 0, "ficheClimReduite": 1, "alti": 120, "url_metadata": "https://donneespubliques.meteofrance.fr/metadonnees_publiques/fiches/fiche_07330004.pdf" }, "geometry": { "type": "Point", "coordinates": [ 4.403667, 44.391833 ] } },
{ "type": "Feature", "properties": { "index": "204", "lat": 44.6695, "lon": 4.360667, "nom_usuel": "VALS-LES-BAINS", "num_poste": "07331001", "commune": "VALS-LES-BAINS", "ficheClimComplete": 0, "ficheClimReduite": 1, "alti": 283, "url_metadata": "https://donneespubliques.meteofrance.fr/metadonnees_publiques/fiches/fiche_07331001.pdf" }, "geometry": { "type": "Point", "coordinates": [ 4.360667, 44.6695 ] } },
{ "type": "Feature", "properties": { "index": "205", "lat": 44.4155, "lon": 4.150833, "nom_usuel": "LES VANS-SA", "num_poste": "07334004", "commune": "LES VANS", "ficheClimComplete": 0, "ficheClimReduite": 1, "alti": 140, "url_metadata": "https://donneespubliques.meteofrance.fr/metadonnees_publiques/fiches/fiche_07334004.pdf" }, "geometry": { "type": "Point", "coordinates": [ 4.150833, 44.4155 ] } },
{ "type": "Feature", "properties": { "index": "206", "lat": 44.8995, "lon": 4.652333, "nom_usuel": "VERNOUX", "num_poste": "07338001", "commune": "VERNOUX-EN-VIVARAIS", "ficheClimComplete": 0, "ficheClimReduite": 1, "alti": 561, "url_metadata": "https://donneespubliques.meteofrance.fr/metadonnees_publiques/fiches/fiche_07338001.pdf" }, "geometry": { "type": "Point", "coordinates": [ 4.652333, 44.8995 ] } },
{ "type": "Feature", "properties": { "index": "207", "lat": 45.201167, "lon": 4.554333, "nom_usuel": "VOCANCE", "num_poste": "07347001", "commune": "VOCANCE", "ficheClimComplete": 0, "ficheClimReduite": 0, "alti": 529, "url_metadata": "https://donneespubliques.meteofrance.fr/metadonnees_publiques/fiches/fiche_07347001.pdf" }, "geometry": { "type": "Point", "coordinates": [ 4.554333, 45.201167 ] } },
{ "type": "Feature", "properties": { "index": "208", "lat": 49.571667, "lon": 4.129167, "nom_usuel": "BANOGNE-RECOUVRANCE", "num_poste": "08046001", "commune": "BANOGNE-RECOUVRANCE", "ficheClimComplete": 0, "ficheClimReduite": 1, "alti": 130, "url_metadata": "https://donneespubliques.meteofrance.fr/metadonnees_publiques/fiches/fiche_08046001.pdf" }, "geometry": { "type": "Point", "coordinates": [ 4.129167, 49.571667 ] } },
{ "type": "Feature", "properties": { "index": "209", "lat": 49.427333, "lon": 4.9645, "nom_usuel": "BUZANCY_SAPC", "num_poste": "08089003", "commune": "BUZANCY", "ficheClimComplete": 0, "ficheClimReduite": 1, "alti": 199, "url_metadata": "https://donneespubliques.meteofrance.fr/metadonnees_publiques/fiches/fiche_08089003.pdf" }, "geometry": { "type": "Point", "coordinates": [ 4.9645, 49.427333 ] } },
{ "type": "Feature", "properties": { "index": "210", "lat": 49.346833, "lon": 4.465167, "nom_usuel": "CAUROY", "num_poste": "08092001", "commune": "CAUROY", "ficheClimComplete": 0, "ficheClimReduite": 1, "alti": 139, "url_metadata": "https://donneespubliques.meteofrance.fr/metadonnees_publiques/fiches/fiche_08092001.pdf" }, "geometry": { "type": "Point", "coordinates": [ 4.465167, 49.346833 ] } },
{ "type": "Feature", "properties": { "index": "211", "lat": 49.782833, "lon": 4.643167, "nom_usuel": "CHARLEVILLE-MEZ", "num_poste": "08105005", "commune": "TOURNES", "ficheClimComplete": 1, "ficheClimReduite": 1, "alti": 145, "url_metadata": "https://donneespubliques.meteofrance.fr/metadonnees_publiques/fiches/fiche_08105005.pdf" }, "geometry": { "type": "Point", "coordinates": [ 4.643167, 49.782833 ] } },
{ "type": "Feature", "properties": { "index": "212", "lat": 49.510333, "lon": 4.766167, "nom_usuel": "LE CHESNE", "num_poste": "08116001", "commune": "BAIRON ET SES ENVIRONS", "ficheClimComplete": 0, "ficheClimReduite": 0, "alti": 168, "url_metadata": "https://donneespubliques.meteofrance.fr/metadonnees_publiques/fiches/fiche_08116001.pdf" }, "geometry": { "type": "Point", "coordinates": [ 4.766167, 49.510333 ] } },
{ "type": "Feature", "properties": { "index": "213", "lat": 49.658, "lon": 5.039833, "nom_usuel": "DOUZY", "num_poste": "08145001", "commune": "DOUZY", "ficheClimComplete": 0, "ficheClimReduite": 1, "alti": 153, "url_metadata": "https://donneespubliques.meteofrance.fr/metadonnees_publiques/fiches/fiche_08145001.pdf" }, "geometry": { "type": "Point", "coordinates": [ 5.039833, 49.658 ] } },
{ "type": "Feature", "properties": { "index": "214", "lat": 50.116, "lon": 4.7795, "nom_usuel": "HAM-SUR-MEUSE", "num_poste": "08207001", "commune": "HAM-SUR-MEUSE", "ficheClimComplete": 0, "ficheClimReduite": 0, "alti": 109, "url_metadata": "https://donneespubliques.meteofrance.fr/metadonnees_publiques/fiches/fiche_08207001.pdf" }, "geometry": { "type": "Point", "coordinates": [ 4.7795, 50.116 ] } },
{ "type": "Feature", "properties": { "index": "215", "lat": 49.397333, "lon": 4.371667, "nom_usuel": "JUNIVILLE", "num_poste": "08239001", "commune": "JUNIVILLE", "ficheClimComplete": 0, "ficheClimReduite": 1, "alti": 90, "url_metadata": "https://donneespubliques.meteofrance.fr/metadonnees_publiques/fiches/fiche_08239001.pdf" }, "geometry": { "type": "Point", "coordinates": [ 4.371667, 49.397333 ] } },
{ "type": "Feature", "properties": { "index": "216", "lat": 49.536667, "lon": 4.689667, "nom_usuel": "LAMETZ_SAPC", "num_poste": "08244001", "commune": "LAMETZ", "ficheClimComplete": 0, "ficheClimReduite": 0, "alti": 165, "url_metadata": "https://donneespubliques.meteofrance.fr/metadonnees_publiques/fiches/fiche_08244001.pdf" }, "geometry": { "type": "Point", "coordinates": [ 4.689667, 49.536667 ] } },
{ "type": "Feature", "properties": { "index": "217", "lat": 49.671833, "lon": 4.534667, "nom_usuel": "LAUNOIS-SUR-VENCE_SAPC", "num_poste": "08248002", "commune": "LAUNOIS-SUR-VENCE", "ficheClimComplete": 0, "ficheClimReduite": 1, "alti": 218, "url_metadata": "https://donneespubliques.meteofrance.fr/metadonnees_publiques/fiches/fiche_08248002.pdf" }, "geometry": { "type": "Point", "coordinates": [ 4.534667, 49.671833 ] } },
{ "type": "Feature", "properties": { "index": "218", "lat": 49.7655, "lon": 4.340333, "nom_usuel": "LIART_SAPC", "num_poste": "08254002", "commune": "LIART", "ficheClimComplete": 0, "ficheClimReduite": 0, "alti": 240, "url_metadata": "https://donneespubliques.meteofrance.fr/metadonnees_publiques/fiches/fiche_08254002.pdf" }, "geometry": { "type": "Point", "coordinates": [ 4.340333, 49.7655 ] } },
{ "type": "Feature", "properties": { "index": "219", "lat": 49.616833, "lon": 5.216833, "nom_usuel": "LINAY", "num_poste": "08255001", "commune": "LINAY", "ficheClimComplete": 0, "ficheClimReduite": 1, "alti": 177, "url_metadata": "https://donneespubliques.meteofrance.fr/metadonnees_publiques/fiches/fiche_08255001.pdf" }, "geometry": { "type": "Point", "coordinates": [ 5.216833, 49.616833 ] } },
{ "type": "Feature", "properties": { "index": "220", "lat": 49.287333, "lon": 4.809667, "nom_usuel": "MONTCHEUTIN_SAPC", "num_poste": "08296002", "commune": "MONTCHEUTIN", "ficheClimComplete": 0, "ficheClimReduite": 1, "alti": 142, "url_metadata": "https://donneespubliques.meteofrance.fr/metadonnees_publiques/fiches/fiche_08296002.pdf" }, "geometry": { "type": "Point", "coordinates": [ 4.809667, 49.287333 ] } },
{ "type": "Feature", "properties": { "index": "221", "lat": 50.118833, "lon": 4.813167, "nom_usuel": "RANCENNES", "num_poste": "08353001", "commune": "RANCENNES", "ficheClimComplete": 0, "ficheClimReduite": 0, "alti": 162, "url_metadata": "https://donneespubliques.meteofrance.fr/metadonnees_publiques/fiches/fiche_08353001.pdf" }, "geometry": { "type": "Point", "coordinates": [ 4.813167, 50.118833 ] } },
{ "type": "Feature", "properties": { "index": "222", "lat": 49.918667, "lon": 4.53, "nom_usuel": "ROCROI", "num_poste": "08367002", "commune": "ROCROI", "ficheClimComplete": 0, "ficheClimReduite": 1, "alti": 382, "url_metadata": "https://donneespubliques.meteofrance.fr/metadonnees_publiques/fiches/fiche_08367002.pdf" }, "geometry": { "type": "Point", "coordinates": [ 4.53, 49.918667 ] } },
{ "type": "Feature", "properties": { "index": "223", "lat": 49.423833, "lon": 4.4925, "nom_usuel": "SAULCES-CHAMPENOISES", "num_poste": "08401001", "commune": "SAULCES-CHAMPENOISES", "ficheClimComplete": 0, "ficheClimReduite": 1, "alti": 147, "url_metadata": "https://donneespubliques.meteofrance.fr/metadonnees_publiques/fiches/fiche_08401001.pdf" }, "geometry": { "type": "Point", "coordinates": [ 4.4925, 49.423833 ] } },
{ "type": "Feature", "properties": { "index": "224", "lat": 49.686, "lon": 4.418833, "nom_usuel": "SIGNY-L'ABBAYE", "num_poste": "08419001", "commune": "SIGNY-L'ABBAYE", "ficheClimComplete": 0, "ficheClimReduite": 1, "alti": 180, "url_metadata": "https://donneespubliques.meteofrance.fr/metadonnees_publiques/fiches/fiche_08419001.pdf" }, "geometry": { "type": "Point", "coordinates": [ 4.418833, 49.686 ] } },
{ "type": "Feature", "properties": { "index": "225", "lat": 49.9135, "lon": 4.288167, "nom_usuel": "SIGNY-LE-PETIT_SAPC", "num_poste": "08420002", "commune": "SIGNY-LE-PETIT", "ficheClimComplete": 0, "ficheClimReduite": 0, "alti": 309, "url_metadata": "https://donneespubliques.meteofrance.fr/metadonnees_publiques/fiches/fiche_08420002.pdf" }, "geometry": { "type": "Point", "coordinates": [ 4.288167, 49.9135 ] } },
{ "type": "Feature", "properties": { "index": "226", "lat": 42.723833, "lon": 1.895167, "nom_usuel": "ASCOU LAVAIL", "num_poste": "09023002", "commune": "ASCOU", "ficheClimComplete": 0, "ficheClimReduite": 1, "alti": 1100, "url_metadata": "https://donneespubliques.meteofrance.fr/metadonnees_publiques/fiches/fiche_09023002.pdf" }, "geometry": { "type": "Point", "coordinates": [ 1.895167, 42.723833 ] } },
{ "type": "Feature", "properties": { "index": "227", "lat": 42.724167, "lon": 1.691, "nom_usuel": "ASTON", "num_poste": "09024004", "commune": "ALBIES", "ficheClimComplete": 0, "ficheClimReduite": 1, "alti": 1781, "url_metadata": "https://donneespubliques.meteofrance.fr/metadonnees_publiques/fiches/fiche_09024004.pdf" }, "geometry": { "type": "Point", "coordinates": [ 1.691, 42.724167 ] } },
{ "type": "Feature", "properties": { "index": "228", "lat": 42.930167, "lon": 0.92, "nom_usuel": "AUGIREIN", "num_poste": "09027001", "commune": "AUGIREIN", "ficheClimComplete": 0, "ficheClimReduite": 1, "alti": 655, "url_metadata": "https://donneespubliques.meteofrance.fr/metadonnees_publiques/fiches/fiche_09027001.pdf" }, "geometry": { "type": "Point", "coordinates": [ 0.92, 42.930167 ] } },
{ "type": "Feature", "properties": { "index": "229", "lat": 43.024333, "lon": 1.3885, "nom_usuel": "LA BASTIDE DE S", "num_poste": "09042003", "commune": "LA BASTIDE-DE-SEROU", "ficheClimComplete": 0, "ficheClimReduite": 1, "alti": 420, "url_metadata": "https://donneespubliques.meteofrance.fr/metadonnees_publiques/fiches/fiche_09042003.pdf" }, "geometry": { "type": "Point", "coordinates": [ 1.3885, 43.024333 ] } },
{ "type": "Feature", "properties": { "index": "230", "lat": 42.903833, "lon": 1.936667, "nom_usuel": "BELESTA", "num_poste": "09047001", "commune": "BELESTA", "ficheClimComplete": 0, "ficheClimReduite": 0, "alti": 490, "url_metadata": "https://donneespubliques.meteofrance.fr/metadonnees_publiques/fiches/fiche_09047001.pdf" }, "geometry": { "type": "Point", "coordinates": [ 1.936667, 42.903833 ] } },
{ "type": "Feature", "properties": { "index": "231", "lat": 43.126, "lon": 1.063, "nom_usuel": "CERIZOLS", "num_poste": "09094001", "commune": "CERIZOLS", "ficheClimComplete": 0, "ficheClimReduite": 1, "alti": 374, "url_metadata": "https://donneespubliques.meteofrance.fr/metadonnees_publiques/fiches/fiche_09094001.pdf" }, "geometry": { "type": "Point", "coordinates": [ 1.063, 43.126 ] } },
{ "type": "Feature", "properties": { "index": "232", "lat": 42.970167, "lon": 1.5645, "nom_usuel": "COS", "num_poste": "09099001", "commune": "COS", "ficheClimComplete": 1, "ficheClimReduite": 1, "alti": 519, "url_metadata": "https://donneespubliques.meteofrance.fr/metadonnees_publiques/fiches/fiche_09099001.pdf" }, "geometry": { "type": "Point", "coordinates": [ 1.5645, 42.970167 ] } },
{ "type": "Feature", "properties": { "index": "233", "lat": 42.990333, "lon": 1.919167, "nom_usuel": "LERAN", "num_poste": "09161003", "commune": "LERAN", "ficheClimComplete": 0, "ficheClimReduite": 1, "alti": 391, "url_metadata": "https://donneespubliques.meteofrance.fr/metadonnees_publiques/fiches/fiche_09161003.pdf" }, "geometry": { "type": "Point", "coordinates": [ 1.919167, 42.990333 ] } },
{ "type": "Feature", "properties": { "index": "234", "lat": 43.0735, "lon": 1.357667, "nom_usuel": "LE MAS D AZIL", "num_poste": "09181003", "commune": "LE MAS-D'AZIL", "ficheClimComplete": 0, "ficheClimReduite": 0, "alti": 293, "url_metadata": "https://donneespubliques.meteofrance.fr/metadonnees_publiques/fiches/fiche_09181003.pdf" }, "geometry": { "type": "Point", "coordinates": [ 1.357667, 43.0735 ] } },
{ "type": "Feature", "properties": { "index": "235", "lat": 43.192167, "lon": 1.6435, "nom_usuel": "MONTAUT", "num_poste": "09199002", "commune": "MONTAUT", "ficheClimComplete": 1, "ficheClimReduite": 1, "alti": 295, "url_metadata": "https://donneespubliques.meteofrance.fr/metadonnees_publiques/fiches/fiche_09199002.pdf" }, "geometry": { "type": "Point", "coordinates": [ 1.6435, 43.192167 ] } },
{ "type": "Feature", "properties": { "index": "236", "lat": 42.891833, "lon": 1.781167, "nom_usuel": "MONTFERRIER", "num_poste": "09206001", "commune": "MONTFERRIER", "ficheClimComplete": 0, "ficheClimReduite": 1, "alti": 760, "url_metadata": "https://donneespubliques.meteofrance.fr/metadonnees_publiques/fiches/fiche_09206001.pdf" }, "geometry": { "type": "Point", "coordinates": [ 1.781167, 42.891833 ] } },
{ "type": "Feature", "properties": { "index": "237", "lat": 42.963667, "lon": 1.748, "nom_usuel": "LES CASCADES", "num_poste": "09250001", "commune": "ROQUEFORT-LES-CASCADES", "ficheClimComplete": 0, "ficheClimReduite": 1, "alti": 530, "url_metadata": "https://donneespubliques.meteofrance.fr/metadonnees_publiques/fiches/fiche_09250001.pdf" }, "geometry": { "type": "Point", "coordinates": [ 1.748, 42.963667 ] } },
{ "type": "Feature", "properties": { "index": "238", "lat": 43.2515, "lon": 1.4215, "nom_usuel": "ST-YBARS", "num_poste": "09277001", "commune": "SAINT-YBARS", "ficheClimComplete": 0, "ficheClimReduite": 1, "alti": 330, "url_metadata": "https://donneespubliques.meteofrance.fr/metadonnees_publiques/fiches/fiche_09277001.pdf" }, "geometry": { "type": "Point", "coordinates": [ 1.4215, 43.2515 ] } },
{ "type": "Feature", "properties": { "index": "239", "lat": 42.77, "lon": 1.114333, "nom_usuel": "PORT D'AULA-NIVOSE", "num_poste": "09285400", "commune": "SEIX", "ficheClimComplete": 0, "ficheClimReduite": 0, "alti": 2140, "url_metadata": "https://donneespubliques.meteofrance.fr/metadonnees_publiques/fiches/fiche_09285400.pdf" }, "geometry": { "type": "Point", "coordinates": [ 1.114333, 42.77 ] } },
{ "type": "Feature", "properties": { "index": "240", "lat": 43.005333, "lon": 1.106833, "nom_usuel": "ST GIRONS", "num_poste": "09289001", "commune": "LORP-SENTARAILLE", "ficheClimComplete": 1, "ficheClimReduite": 1, "alti": 414, "url_metadata": "https://donneespubliques.meteofrance.fr/metadonnees_publiques/fiches/fiche_09289001.pdf" }, "geometry": { "type": "Point", "coordinates": [ 1.106833, 43.005333 ] } },
{ "type": "Feature", "properties": { "index": "241", "lat": 42.914667, "lon": 1.234333, "nom_usuel": "SOULAN", "num_poste": "09301001", "commune": "SOULAN", "ficheClimComplete": 0, "ficheClimReduite": 0, "alti": 638, "url_metadata": "https://donneespubliques.meteofrance.fr/metadonnees_publiques/fiches/fiche_09301001.pdf" }, "geometry": { "type": "Point", "coordinates": [ 1.234333, 42.914667 ] } },
{ "type": "Feature", "properties": { "index": "242", "lat": 42.791667, "lon": 1.69, "nom_usuel": "VERDUN", "num_poste": "09328001", "commune": "VERDUN", "ficheClimComplete": 0, "ficheClimReduite": 0, "alti": 550, "url_metadata": "https://donneespubliques.meteofrance.fr/metadonnees_publiques/fiches/fiche_09328001.pdf" }, "geometry": { "type": "Point", "coordinates": [ 1.69, 42.791667 ] } },
{ "type": "Feature", "properties": { "index": "243", "lat": 42.771667, "lon": 1.488167, "nom_usuel": "VICDESSOS", "num_poste": "09334004", "commune": "VAL-DE-SOS", "ficheClimComplete": 0, "ficheClimReduite": 1, "alti": 750, "url_metadata": "https://donneespubliques.meteofrance.fr/metadonnees_publiques/fiches/fiche_09334004.pdf" }, "geometry": { "type": "Point", "coordinates": [ 1.488167, 42.771667 ] } },